Name,Latitude,Longitude,AbsAlt,RltAlt,Pitch,Roll,Yaw,StdHorizon,StdHeight,Q,Date,Time
8down00001.JPG,14.52107411,101.01397203,137.238,118.972,-79.24,-158.42,-51.93,1.34477527825284,2.54931,16,2022.11.06,09.29.17.253270
8front00001.JPG,14.52107445,101.01397185,137.206,118.942,-54.83,173.15,154.91,1.34477527825284,2.54931,16,2022.11.06,09.29.17.278440
8back00001.JPG,14.52107370,101.01397230,137.193,118.929,-34.88,-175.20,-33.45,1.34477527825284,2.54931,16,2022.11.06,09.29.17.289370
8right00001.JPG,14.52107428,101.01397246,137.197,118.933,-40.25,166.85,-111.42,1.34477527825284,2.54931,16,2022.11.06,09.29.17.290470
8right00002.JPG,14.52094544,101.01404876,137.174,119.935,-37.69,157.02,-105.46,1.38812678938201,2.60193,16,2022.11.06,09.29.21.250320
8down00002.JPG,14.52094494,101.01404855,137.212,119.973,-71.34,-164.99,-45.81,1.38812678938201,2.60193,16,2022.11.06,09.29.21.254360
8left00002.JPG,14.52094443,101.01404835,137.180,119.941,-46.77,-153.18,39.78,1.38812678938201,2.60193,16,2022.11.06,09.29.21.258360
8front00002.JPG,14.52094347,101.01404943,137.189,119.949,-62.68,169.60,157.72,1.38812678938201,2.60193,16,2022.11.06,09.29.21.279360
8back00002.JPG,14.52094199,101.01405031,137.166,119.926,-26.84,-174.67,-33.96,1.38812678938201,2.60193,16,2022.11.06,09.29.21.289400
8right00003.JPG,14.52082374,101.01412077,137.142,119.936,-38.34,155.48,-104.20,1.40221685341462,2.59539,16,2022.11.06,09.29.22.729700
8down00003.JPG,14.52082310,101.01412064,137.180,119.974,-70.60,-168.55,-42.12,1.40221685341462,2.59539,16,2022.11.06,09.29.22.734370
8left00003.JPG,14.52082253,101.01412048,137.146,119.941,-45.53,-152.31,39.47,1.40221685341462,2.59539,16,2022.11.06,09.29.22.738370
8front00003.JPG,14.52082120,101.01412177,137.155,119.950,-63.79,171.41,156.41,1.40221685341462,2.59539,16,2022.11.06,09.29.22.759520
8back00003.JPG,14.52081956,101.01412274,137.130,119.926,-25.90,-175.80,-33.14,1.40221685341462,2.59539,16,2022.11.06,09.29.22.769430
8right00004.JPG,14.52070230,101.01419302,137.194,119.933,-40.52,169.45,-114.10,1.3756088642125,2.60873,16,2022.11.06,09.29.23.969560
8down00004.JPG,14.52070158,101.01419295,137.234,119.972,-81.06,-153.60,-57.68,1.3756088642125,2.60873,16,2022.11.06,09.29.23.974500
8left00004.JPG,14.52070110,101.01419274,137.199,119.938,-48.36,-167.91,49.90,1.3756088642125,2.60873,16,2022.11.06,09.29.23.977160
8front00004.JPG,14.52069947,101.01419420,137.204,119.940,-52.84,173.43,153.68,1.3756088642125,2.60873,16,2022.11.06,09.29.23.999070
8back00004.JPG,14.52069767,101.01419530,137.194,119.930,-36.88,-175.05,-34.54,1.3756088642125,2.60873,16,2022.11.06,09.29.24.974000
8down00005.JPG,14.52058633,101.01426202,137.310,119.972,-81.46,-159.58,-51.64,1.35161444358219,2.57217,16,2022.11.06,09.29.25.134190
8left00005.JPG,14.52058573,101.01426188,137.275,119.937,-47.38,-168.14,50.21,1.35161444358219,2.57217,16,2022.11.06,09.29.25.138080
8front00005.JPG,14.52058429,101.01426323,137.279,119.940,-52.91,175.07,152.52,1.35161444358219,2.57217,16,2022.11.06,09.29.25.158760
8back00005.JPG,14.52058259,101.01426427,137.268,119.930,-36.93,-176.28,-33.65,1.35161444358219,2.57217,16,2022.11.06,09.29.25.168770
8right00005.JPG,14.52058317,101.01426441,137.272,119.933,-41.50,169.29,-113.86,1.35161444358219,2.57217,16,2022.11.06,09.29.25.168800
8down00006.JPG,14.52047499,101.01432859,137.350,119.972,-81.06,-153.60,-56.68,1.3523923500597,2.56687,16,2022.11.06,09.29.26.294720
8left00006.JPG,14.52047444,101.01432841,137.315,119.938,-48.36,-167.91,50.90,1.3523923500597,2.56687,16,2022.11.06,09.29.26.298240
8front00006.JPG,14.52047311,101.01432971,137.319,119.940,-52.84,173.43,154.68,1.3523923500597,2.56687,16,2022.11.06,09.29.26.318480
8right00006.JPG,14.52047190,101.01433092,137.312,119.933,-40.52,169.45,-113.10,1.3523923500597,2.56687,16,2022.11.06,09.29.26.329490
8back00006.JPG,14.52046751,101.01433303,137.311,119.930,-36.88,-175.05,-33.54,1.3523923500597,2.56687,16,2022.11.06,09.29.26.369760
8down00007.JPG,14.52035484,101.01439911,137.295,119.972,-79.24,-158.42,-51.93,1.33415848009148,2.52534,16,2022.11.06,09.29.27.573160
8left00007.JPG,14.52035414,101.01439901,137.260,119.938,-48.01,-164.96,48.70,1.33415848009148,2.52534,16,2022.11.06,09.29.27.578320
8front00007.JPG,14.52035290,101.01440022,137.262,119.942,-54.83,173.15,154.91,1.33415848009148,2.52534,16,2022.11.06,09.29.27.597700
8back00007.JPG,14.52035120,101.01440122,137.248,119.929,-34.88,-175.20,-33.45,1.33415848009148,2.52534,16,2022.11.06,09.29.27.607940
8right00007.JPG,14.52035170,101.01440143,137.251,119.933,-40.25,166.85,-111.42,1.33415848009148,2.52534,16,2022.11.06,09.29.27.608790
8down00008.JPG,14.52023975,101.01446705,137.196,119.973,-78.30,-160.26,-50.13,1.3347391430538,2.49539,16,2022.11.06,09.29.28.813130
8left00008.JPG,14.52023902,101.01446698,137.162,119.938,-47.80,-163.50,47.62,1.3347391430538,2.49539,16,2022.11.06,09.29.28.818810
8front00008.JPG,14.52023774,101.01446827,137.166,119.943,-55.83,173.00,155.04,1.3347391430538,2.49539,16,2022.11.06,09.29.28.839060
8back00008.JPG,14.52023618,101.01446920,137.151,119.929,-33.88,-175.27,-33.41,1.3347391430538,2.49539,16,2022.11.06,09.29.28.847900
8right00008.JPG,14.52023651,101.01446951,137.156,119.933,-40.09,165.56,-110.58,1.3347391430538,2.49539,16,2022.11.06,09.29.28.850590
8right00009.JPG,14.52012606,101.01453612,137.146,119.933,-39.12,165.76,-110.90,1.34084922701995,2.53781,16,2022.11.06,09.29.30.497300
8down00009.JPG,14.52012553,101.01453594,137.186,119.973,-77.93,-155.85,-54.63,1.34084922701995,2.53781,16,2022.11.06,09.29.30.532300
8left00009.JPG,14.52012481,101.01453586,137.152,119.939,-48.76,-163.18,47.19,1.34084922701995,2.53781,16,2022.11.06,09.29.30.587200
8front00009.JPG,14.52012352,101.01453714,137.156,119.943,-55.73,171.26,156.28,1.34084922701995,2.53781,16,2022.11.06,09.29.30.789000
8back00009.JPG,14.52012184,101.01453815,137.142,119.929,-33.82,-174.09,-34.25,1.34084922701995,2.53781,16,2022.11.06,09.29.30.891700
8left00010.JPG,14.52001353,101.01460226,137.173,119.938,-47.80,-163.50,47.62,1.3433414281187,2.50514,16,2022.11.06,09.29.31.258370
8front00010.JPG,14.52001222,101.01460355,137.179,119.943,-55.83,173.00,155.04,1.3433414281187,2.50514,16,2022.11.06,09.29.31.278620
8back00010.JPG,14.52001050,101.01460457,137.165,119.929,-33.88,-175.27,-33.41,1.3433414281187,2.50514,16,2022.11.06,09.29.31.289160
8right00010.JPG,14.52001095,101.01460481,137.169,119.933,-40.09,165.56,-110.58,1.3433414281187,2.50514,16,2022.11.06,09.29.31.290540
8down00010.JPG,14.52001050,101.01460457,137.209,119.973,-78.30,-160.26,-50.13,1.3433414281187,2.50514,16,2022.11.06,09.29.31.293110
8right00011.JPG,14.51989205,101.01467626,137.205,119.933,-40.25,166.85,-111.42,1.34610320321289,2.50082,16,2022.11.06,09.29.32.570360
8down00011.JPG,14.51989158,101.01467604,137.244,119.972,-79.24,-158.42,-51.93,1.34610320321289,2.50082,16,2022.11.06,09.29.32.573220
8left00011.JPG,14.51989094,101.01467592,137.210,119.938,-48.01,-164.96,48.70,1.34610320321289,2.50082,16,2022.11.06,09.29.32.577790
8front00011.JPG,14.51988955,101.01467727,137.214,119.942,-54.83,173.15,154.91,1.34610320321289,2.50082,16,2022.11.06,09.29.32.598980
8back00011.JPG,14.51988787,101.01467827,137.202,119.929,-34.88,-175.20,-33.45,1.34610320321289,2.50082,16,2022.11.06,09.29.32.609110
8right00012.JPG,14.51978008,101.01474305,137.239,119.933,-39.12,165.76,-110.90,1.34072436906323,2.53565,16,2022.11.06,09.29.33.768900
8down00012.JPG,14.51977937,101.01474297,137.279,119.973,-77.93,-155.85,-54.63,1.34072436906323,2.53565,16,2022.11.06,09.29.33.774260
8left00012.JPG,14.51977888,101.01474275,137.245,119.939,-48.76,-163.18,47.19,1.34072436906323,2.53565,16,2022.11.06,09.29.33.777190
8front00012.JPG,14.51977744,101.01474410,137.248,119.943,-55.73,171.26,156.28,1.34072436906323,2.53565,16,2022.11.06,09.29.33.798720
8back00012.JPG,14.51977575,101.01474510,137.234,119.929,-33.82,-174.09,-34.25,1.34072436906323,2.53565,16,2022.11.06,09.29.33.808920
8down00013.JPG,14.51966701,101.01480939,137.290,119.973,-78.83,-153.70,-56.74,1.33998765076399,2.54856,16,2022.11.06,09.29.34.974000
8left00013.JPG,14.51966650,101.01480919,137.256,119.939,-48.97,-164.66,48.31,1.33998765076399,2.54856,16,2022.11.06,09.29.34.977210
8front00013.JPG,14.51966510,101.01481052,137.260,119.942,-54.74,171.45,156.13,1.33998765076399,2.54856,16,2022.11.06,09.29.34.998420
8right00013.JPG,14.51966398,101.01481169,137.250,119.932,-39.27,167.04,-111.71,1.33998765076399,2.54856,16,2022.11.06,09.29.35.879000
8back00013.JPG,14.51966334,101.01481156,137.247,119.929,-34.82,-174.00,-34.31,1.33998765076399,2.54856,16,2022.11.06,09.29.35.936000
8down00014.JPG,14.51954848,101.01488045,137.311,119.973,-78.30,-160.26,-50.13,1.3358006553749,2.50425,16,2022.11.06,09.29.36.253110
8left00014.JPG,14.51954790,101.01488029,137.277,119.938,-47.80,-163.50,47.62,1.3358006553749,2.50425,16,2022.11.06,09.29.36.257150
8front00014.JPG,14.51954648,101.01488168,137.283,119.943,-55.83,173.00,155.04,1.3358006553749,2.50425,16,2022.11.06,09.29.36.278900
8right00014.JPG,14.51954540,101.01488284,137.274,119.933,-40.09,165.56,-110.58,1.3358006553749,2.50425,16,2022.11.06,09.29.36.288800
8back00014.JPG,14.51954476,101.01488272,137.269,119.929,-33.88,-175.27,-33.41,1.3358006553749,2.50425,16,2022.11.06,09.29.36.289520
8left00015.JPG,14.51942557,101.01495446,137.328,119.938,-47.80,-163.50,47.62,1.32842786574959,2.48088,16,2022.11.06,09.29.37.578630
8right00015.JPG,14.51942312,101.01495695,137.323,119.933,-40.09,165.56,-110.58,1.32842786574959,2.48088,16,2022.11.06,09.29.37.609620
8down00015.JPG,14.51942241,101.01495687,137.363,119.973,-78.30,-160.26,-50.13,1.32842786574959,2.48088,16,2022.11.06,09.29.37.615020
8front00015.JPG,14.51942053,101.01495801,137.334,119.943,-55.83,173.00,155.04,1.32842786574959,2.48088,16,2022.11.06,09.29.37.639300
8back00015.JPG,14.51941886,101.01495901,137.320,119.929,-33.88,-175.27,-33.41,1.32842786574959,2.48088,16,2022.11.06,09.29.37.649380
8down00016.JPG,14.51931773,101.01501899,137.399,119.973,-78.30,-160.26,-50.13,1.35873053229844,2.5598,16,2022.11.06,09.29.38.734050
8left00016.JPG,14.51931710,101.01501885,137.365,119.938,-47.80,-163.50,47.62,1.35873053229844,2.5598,16,2022.11.06,09.29.38.738480
8front00016.JPG,14.51931575,101.01502015,137.370,119.943,-55.83,173.00,155.04,1.35873053229844,2.5598,16,2022.11.06,09.29.38.759170
8back00016.JPG,14.51931407,101.01502114,137.356,119.929,-33.88,-175.27,-33.41,1.35873053229844,2.5598,16,2022.11.06,09.29.38.769150
8right00016.JPG,14.51931456,101.01502136,137.360,119.933,-40.09,165.56,-110.58,1.35873053229844,2.5598,16,2022.11.06,09.29.38.770160
8left00017.JPG,14.51920496,101.01508537,137.348,119.939,-48.76,-163.18,47.19,1.35833587013669,2.58947,16,2022.11.06,09.29.39.938570
8right00017.JPG,14.51920248,101.01508786,137.342,119.933,-39.12,165.76,-110.90,1.35833587013669,2.58947,16,2022.11.06,09.29.39.969740
8down00017.JPG,14.51920196,101.01508767,137.382,119.973,-77.93,-155.85,-54.63,1.35833587013669,2.58947,16,2022.11.06,09.29.39.973130
8front00017.JPG,14.51919992,101.01508889,137.352,119.943,-55.73,171.26,156.28,1.35833587013669,2.58947,16,2022.11.06,09.29.39.999040
8back00017.JPG,14.51919825,101.01508988,137.338,119.929,-33.82,-174.09,-34.25,1.35833587013669,2.58947,16,2022.11.06,09.29.40.909000
8right00018.JPG,14.51908712,101.01515653,137.321,119.933,-39.12,165.76,-110.90,1.35112916725234,2.5709,16,2022.11.06,09.29.41.208890
8down00018.JPG,14.51908636,101.01515647,137.361,119.973,-77.93,-155.85,-54.63,1.35112916725234,2.5709,16,2022.11.06,09.29.41.214760
8left00018.JPG,14.51908592,101.01515623,137.327,119.939,-48.76,-163.18,47.19,1.35112916725234,2.5709,16,2022.11.06,09.29.41.217180
8front00018.JPG,14.51908444,101.01515760,137.332,119.943,-55.73,171.26,156.28,1.35112916725234,2.5709,16,2022.11.06,09.29.41.239160
8back00018.JPG,14.51908274,101.01515861,137.318,119.929,-33.82,-174.09,-34.25,1.35112916725234,2.5709,16,2022.11.06,09.29.41.249380
8down00019.JPG,14.51896277,101.01522965,137.366,119.973,-77.93,-155.85,-54.63,1.35934574869678,2.61614,16,2022.11.06,09.29.42.534690
8left00019.JPG,14.51896217,101.01522951,137.333,119.939,-48.76,-163.18,47.19,1.35934574869678,2.61614,16,2022.11.06,09.29.42.538910
8front00019.JPG,14.51896084,101.01523080,137.337,119.943,-55.73,171.26,156.28,1.35934574869678,2.61614,16,2022.11.06,09.29.42.559300
8back00019.JPG,14.51895917,101.01523179,137.322,119.929,-33.82,-174.09,-34.25,1.35934574869678,2.61614,16,2022.11.06,09.29.42.569160
8right00019.JPG,14.51895962,101.01523203,137.326,119.933,-39.12,165.76,-110.90,1.35934574869678,2.61614,16,2022.11.06,09.29.42.570620
8left00020.JPG,14.51884628,101.01529902,137.325,119.938,-47.80,-163.50,47.62,1.36941606738055,2.58267,16,2022.11.06,09.29.43.778410
8front00020.JPG,14.51884493,101.01530034,137.328,119.943,-55.83,173.00,155.04,1.36941606738055,2.58267,16,2022.11.06,09.29.43.799110
8back00020.JPG,14.51884329,101.01530132,137.314,119.929,-33.88,-175.27,-33.41,1.36941606738055,2.58267,16,2022.11.06,09.29.43.808690
8right00020.JPG,14.51884368,101.01530160,137.319,119.933,-40.09,165.56,-110.58,1.36941606738055,2.58267,16,2022.11.06,09.29.43.810740
8down00020.JPG,14.51884324,101.01530135,137.358,119.973,-78.30,-160.26,-50.13,1.36941606738055,2.58267,16,2022.11.06,09.29.43.813200
8right00021.JPG,14.51873540,101.01536646,137.295,119.932,-39.27,167.04,-111.71,1.3679291948416,2.58403,16,2022.11.06,09.29.44.969840
8down00021.JPG,14.51873478,101.01536632,137.335,119.973,-78.83,-153.70,-56.74,1.3679291948416,2.58403,16,2022.11.06,09.29.44.974170
8left00021.JPG,14.51873418,101.01536618,137.301,119.939,-48.97,-164.66,48.31,1.3679291948416,2.58403,16,2022.11.06,09.29.44.978350
8front00021.JPG,14.51873284,101.01536748,137.305,119.942,-54.74,171.45,156.13,1.3679291948416,2.58403,16,2022.11.06,09.29.44.998920
8back00021.JPG,14.51873116,101.01536848,137.291,119.929,-34.82,-174.00,-34.31,1.3679291948416,2.58403,16,2022.11.06,09.29.45.902000
8right00022.JPG,14.51861957,101.01543514,137.258,119.933,-39.12,165.76,-110.90,1.36862733075882,2.60922,16,2022.11.06,09.29.46.208760
8down00022.JPG,14.51861896,101.01543500,137.298,119.973,-77.93,-155.85,-54.63,1.36862733075882,2.60922,16,2022.11.06,09.29.46.213100
8left00022.JPG,14.51861823,101.01543493,137.264,119.939,-48.76,-163.18,47.19,1.36862733075882,2.60922,16,2022.11.06,09.29.46.218580
8front00022.JPG,14.51861687,101.01543624,137.268,119.943,-55.73,171.26,156.28,1.36862733075882,2.60922,16,2022.11.06,09.29.46.239410
8back00022.JPG,14.51861517,101.01543725,137.254,119.929,-33.82,-174.09,-34.25,1.36862733075882,2.60922,16,2022.11.06,09.29.46.249580
8left00023.JPG,14.51848758,101.01551248,137.242,118.939,-48.53,-161.70,46.08,1.36560997594482,2.60897,16,2022.11.06,09.29.47.618140
8front00023.JPG,14.51848620,101.01551381,137.247,118.944,-56.72,171.06,156.45,1.36560997594482,2.60897,16,2022.11.06,09.29.47.639130
8back00023.JPG,14.51848454,101.01551480,137.232,118.928,-32.82,-174.18,-34.21,1.36560997594482,2.60897,16,2022.11.06,09.29.47.649000
8right00023.JPG,14.51848502,101.01551502,137.237,118.933,-38.96,164.49,-110.10,1.36560997594482,2.60897,16,2022.11.06,09.29.47.650070
8down00023.JPG,14.51848443,101.01551487,137.277,118.973,-77.01,-157.71,-52.82,1.36560997594482,2.60897,16,2022.11.06,09.29.47.654180
8left00024.JPG,14.51839064,101.01557045,137.252,118.939,-48.76,-163.18,47.19,1.36194385761675,2.56709,16,2022.11.06,09.29.48.658580
8right00024.JPG,14.51838807,101.01557299,137.246,118.933,-39.12,165.76,-110.90,1.36194385761675,2.56709,16,2022.11.06,09.29.48.690520
8down00024.JPG,14.51838752,101.01557281,137.286,118.973,-77.93,-155.85,-54.63,1.36194385761675,2.56709,16,2022.11.06,09.29.48.694170
8front00024.JPG,14.51838552,101.01557401,137.257,118.943,-55.73,171.26,156.28,1.36194385761675,2.56709,16,2022.11.06,09.29.48.719570
8back00024.JPG,14.51838392,101.01557496,137.242,118.929,-33.82,-174.09,-34.25,1.36194385761675,2.56709,16,2022.11.06,09.29.48.728730
8right00025.JPG,14.51826843,101.01564465,137.258,118.932,-39.27,167.04,-111.71,1.36077393761785,2.57035,16,2022.11.06,09.29.49.968780
8down00025.JPG,14.51826782,101.01564451,137.298,118.973,-78.83,-153.70,-56.74,1.36077393761785,2.57035,16,2022.11.06,09.29.49.973100
8left00025.JPG,14.51826712,101.01564442,137.264,118.939,-48.97,-164.66,48.31,1.36077393761785,2.57035,16,2022.11.06,09.29.49.978350
8front00025.JPG,14.51826576,101.01564574,137.268,118.942,-54.74,171.45,156.13,1.36077393761785,2.57035,16,2022.11.06,09.29.49.999020
8back00025.JPG,14.51826404,101.01564676,137.254,118.929,-34.82,-174.00,-34.31,1.36077393761785,2.57035,16,2022.11.06,09.29.50.949000
8left00026.JPG,14.51815504,101.01571118,137.285,119.939,-48.76,-163.18,47.19,1.36820464448854,2.59333,16,2022.11.06,09.29.51.178650
8right00026.JPG,14.51815250,101.01571370,137.278,119.933,-39.12,165.76,-110.90,1.36820464448854,2.59333,16,2022.11.06,09.29.51.210240
8down00026.JPG,14.51815203,101.01571348,137.318,119.973,-77.93,-155.85,-54.63,1.36820464448854,2.59333,16,2022.11.06,09.29.51.213120
8front00026.JPG,14.51815000,101.01571468,137.289,119.943,-55.73,171.26,156.28,1.36820464448854,2.59333,16,2022.11.06,09.29.51.238740
8back00026.JPG,14.51814833,101.01571567,137.275,119.929,-33.82,-174.09,-34.25,1.36820464448854,2.59333,16,2022.11.06,09.29.51.248630
8down00027.JPG,14.51803624,101.01578242,137.337,119.973,-77.93,-155.85,-54.63,1.36901026018799,2.59957,16,2022.11.06,09.29.52.453170
8left00027.JPG,14.51803553,101.01578234,137.303,119.939,-48.76,-163.18,47.19,1.36901026018799,2.59957,16,2022.11.06,09.29.52.458510
8front00027.JPG,14.51803419,101.01578364,137.307,119.943,-55.73,171.26,156.28,1.36901026018799,2.59957,16,2022.11.06,09.29.52.479040
8back00027.JPG,14.51803255,101.01578462,137.293,119.929,-33.82,-174.09,-34.25,1.36901026018799,2.59957,16,2022.11.06,09.29.52.488740
8right00027.JPG,14.51803300,101.01578486,137.297,119.933,-39.12,165.76,-110.90,1.36901026018799,2.59957,16,2022.11.06,09.29.52.490110
8right00028.JPG,14.51792103,101.01585162,137.298,119.933,-39.12,165.76,-110.90,1.36258792340164,2.5723,16,2022.11.06,09.29.53.689870
8down00028.JPG,14.51792052,101.01585142,137.338,119.973,-77.93,-155.85,-54.63,1.36258792340164,2.5723,16,2022.11.06,09.29.53.693100
8left00028.JPG,14.51791976,101.01585137,137.304,119.939,-48.76,-163.18,47.19,1.36258792340164,2.5723,16,2022.11.06,09.29.53.699000
8front00028.JPG,14.51791860,101.01585257,137.308,119.943,-55.73,171.26,156.28,1.36258792340164,2.5723,16,2022.11.06,09.29.53.717650
8back00028.JPG,14.51791679,101.01585365,137.294,119.929,-33.82,-174.09,-34.25,1.36258792340164,2.5723,16,2022.11.06,09.29.53.729200
8down00029.JPG,14.51780478,101.01592072,137.350,119.973,-77.93,-155.85,-54.63,1.36709416855607,2.58759,16,2022.11.06,09.29.54.933060
8left00029.JPG,14.51780418,101.01592057,137.317,119.939,-48.76,-163.18,47.19,1.36709416855607,2.58759,16,2022.11.06,09.29.54.937200
8front00029.JPG,14.51780272,101.01592196,137.321,119.943,-55.73,171.26,156.28,1.36709416855607,2.58759,16,2022.11.06,09.29.54.959150
8back00029.JPG,14.51780101,101.01592298,137.307,119.929,-33.82,-174.09,-34.25,1.36709416855607,2.58759,16,2022.11.06,09.29.54.969500
8right00029.JPG,14.51780157,101.01592315,137.311,119.933,-39.12,165.76,-110.90,1.36709416855607,2.58759,16,2022.11.06,09.29.54.969740
8right00030.JPG,14.51768977,101.01599008,137.290,119.933,-40.09,165.56,-110.58,1.35948181425865,2.57322,16,2022.11.06,09.29.56.169710
8down00030.JPG,14.51768911,101.01598997,137.330,119.973,-78.30,-160.26,-50.13,1.35948181425865,2.57322,16,2022.11.06,09.29.56.174540
8left00030.JPG,14.51768854,101.01598980,137.295,119.938,-47.80,-163.50,47.62,1.35948181425865,2.57322,16,2022.11.06,09.29.56.178350
8front00030.JPG,14.51768714,101.01599115,137.300,119.943,-55.83,173.00,155.04,1.35948181425865,2.57322,16,2022.11.06,09.29.56.199650
8back00030.JPG,14.51768555,101.01599210,137.286,119.929,-33.88,-175.27,-33.41,1.35948181425865,2.57322,16,2022.11.06,09.29.56.208800
8right00031.JPG,14.51757034,101.01606158,137.304,119.933,-40.09,165.56,-110.58,1.36458839644048,2.57497,16,2022.11.06,09.29.57.448460
8down00031.JPG,14.51756956,101.01606154,137.343,119.973,-78.30,-160.26,-50.13,1.36458839644048,2.57497,16,2022.11.06,09.29.57.454490
8left00031.JPG,14.51756894,101.01606141,137.309,119.938,-47.80,-163.50,47.62,1.36458839644048,2.57497,16,2022.11.06,09.29.57.458950
8front00031.JPG,14.51756776,101.01606261,137.313,119.943,-55.83,173.00,155.04,1.36458839644048,2.57497,16,2022.11.06,09.29.57.477660
8back00031.JPG,14.51756593,101.01606370,137.299,119.929,-33.88,-175.27,-33.41,1.36458839644048,2.57497,16,2022.11.06,09.29.57.489240
8down00032.JPG,14.51745763,101.01612829,137.322,119.972,-79.24,-158.42,-51.93,1.36079509375953,2.56425,16,2022.11.06,09.29.58.653080
8left00032.JPG,14.51745692,101.01612821,137.288,119.938,-48.01,-164.96,48.70,1.36079509375953,2.56425,16,2022.11.06,09.29.58.658440
8front00032.JPG,14.51745561,101.01612949,137.291,119.942,-54.83,173.15,154.91,1.36079509375953,2.56425,16,2022.11.06,09.29.58.678620
8right00032.JPG,14.51745450,101.01613066,137.282,119.933,-40.25,166.85,-111.42,1.36079509375953,2.56425,16,2022.11.06,09.29.58.688780
8back00032.JPG,14.51745386,101.01613053,137.278,119.929,-34.88,-175.20,-33.45,1.36079509375953,2.56425,16,2022.11.06,09.29.58.689420
8down00033.JPG,14.51734143,101.01619739,137.308,119.973,-77.01,-157.71,-52.82,1.36760323208159,2.56928,16,2022.11.06,09.29.59.894370
8left00033.JPG,14.51734087,101.01619722,137.274,119.939,-48.53,-161.70,46.08,1.36760323208159,2.56928,16,2022.11.06,09.29.59.898140
8front00033.JPG,14.51733946,101.01619856,137.279,119.944,-56.72,171.06,156.45,1.36760323208159,2.56928,16,2022.11.06,09.29.59.919430
8right00033.JPG,14.51733843,101.01619968,137.269,119.933,-38.96,164.49,-110.10,1.36760323208159,2.56928,16,2022.11.06,09.29.59.928770
8back00033.JPG,14.51733784,101.01619953,137.264,119.928,-32.82,-174.18,-34.21,1.36760323208159,2.56928,16,2022.11.06,09.29.59.928860
8down00034.JPG,14.51721828,101.01627052,137.310,119.973,-77.01,-157.71,-52.82,1.37370178776181,2.57164,16,2022.11.06,09.30.01.214440
8left00034.JPG,14.51721769,101.01627036,137.277,119.939,-48.53,-161.70,46.08,1.37370178776181,2.57164,16,2022.11.06,09.30.01.218460
8front00034.JPG,14.51721633,101.01627167,137.283,119.944,-56.72,171.06,156.45,1.37370178776181,2.57164,16,2022.11.06,09.30.01.239240
8back00034.JPG,14.51721468,101.01627265,137.267,119.928,-32.82,-174.18,-34.21,1.37370178776181,2.57164,16,2022.11.06,09.30.01.249030
8right00034.JPG,14.51721521,101.01627284,137.272,119.933,-38.96,164.49,-110.10,1.37370178776181,2.57164,16,2022.11.06,09.30.01.249550
8down00035.JPG,14.51709499,101.01634355,137.305,119.973,-77.93,-155.85,-54.63,1.38427550093903,2.55693,16,2022.11.06,09.30.02.534460
8left00035.JPG,14.51709435,101.01634342,137.271,119.939,-48.76,-163.18,47.19,1.38427550093903,2.55693,16,2022.11.06,09.30.02.538980
8front00035.JPG,14.51709310,101.01634466,137.275,119.943,-55.73,171.26,156.28,1.38427550093903,2.55693,16,2022.11.06,09.30.02.558550
8right00035.JPG,14.51709199,101.01634583,137.264,119.933,-39.12,165.76,-110.90,1.38427550093903,2.55693,16,2022.11.06,09.30.02.568760
8back00035.JPG,14.51709134,101.01634571,137.260,119.929,-33.82,-174.09,-34.25,1.38427550093903,2.55693,16,2022.11.06,09.30.02.569490
8left00036.JPG,14.51699368,101.01640316,137.270,119.939,-48.76,-163.18,47.19,1.36032772080848,2.56452,16,2022.11.06,09.30.03.618810
8right00036.JPG,14.51699114,101.01640568,137.264,119.933,-39.12,165.76,-110.90,1.36032772080848,2.56452,16,2022.11.06,09.30.03.650560
8down00036.JPG,14.51699053,101.01640554,137.304,119.973,-77.93,-155.85,-54.63,1.36032772080848,2.56452,16,2022.11.06,09.30.03.654860
8front00036.JPG,14.51698859,101.01640669,137.274,119.943,-55.73,171.26,156.28,1.36032772080848,2.56452,16,2022.11.06,09.30.03.679620
8back00036.JPG,14.51698695,101.01640767,137.260,119.929,-33.82,-174.09,-34.25,1.36032772080848,2.56452,16,2022.11.06,09.30.03.689280
8left00037.JPG,14.51687439,101.01647419,137.271,119.939,-48.53,-161.70,46.08,1.38207906141436,2.58381,16,2022.11.06,09.30.04.897210
8right00037.JPG,14.51687172,101.01647680,137.266,119.933,-38.96,164.49,-110.10,1.38207906141436,2.58381,16,2022.11.06,09.30.04.930380
8down00037.JPG,14.51687126,101.01647657,137.306,119.973,-77.01,-157.71,-52.82,1.38207906141436,2.58381,16,2022.11.06,09.30.04.933070
8front00037.JPG,14.51686919,101.01647781,137.278,119.944,-56.72,171.06,156.45,1.38207906141436,2.58381,16,2022.11.06,09.30.04.959190
8back00037.JPG,14.51686754,101.01647879,137.263,119.928,-32.82,-174.18,-34.21,1.38207906141436,2.58381,16,2022.11.06,09.30.04.968950
8right00038.JPG,14.51675974,101.01654359,137.258,119.933,-39.12,165.76,-110.90,1.39506692599316,2.57781,16,2022.11.06,09.30.06.129650
8down00038.JPG,14.51675909,101.01654347,137.298,119.973,-77.93,-155.85,-54.63,1.39506692599316,2.57781,16,2022.11.06,09.30.06.134370
8front00038.JPG,14.51675717,101.01654462,137.268,119.943,-55.73,171.26,156.28,1.39506692599316,2.57781,16,2022.11.06,09.30.06.158960
8back00038.JPG,14.51675561,101.01654555,137.254,119.929,-33.82,-174.09,-34.25,1.39506692599316,2.57781,16,2022.11.06,09.30.06.167760
8left00038.JPG,14.51676231,101.01654104,137.265,119.939,-48.76,-163.18,47.19,1.39506692599316,2.57781,16,2022.11.06,09.30.06.975800
8down00039.JPG,14.51663206,101.01661924,137.296,119.973,-77.93,-155.85,-54.63,1.38397884741784,2.57724,16,2022.11.06,09.30.07.494580
8left00039.JPG,14.51663143,101.01661910,137.263,119.939,-48.76,-163.18,47.19,1.38397884741784,2.57724,16,2022.11.06,09.30.07.499010
8front00039.JPG,14.51663010,101.01662040,137.266,119.943,-55.73,171.26,156.28,1.38397884741784,2.57724,16,2022.11.06,09.30.07.519500
8back00039.JPG,14.51662843,101.01662140,137.252,119.929,-33.82,-174.09,-34.25,1.38397884741784,2.57724,16,2022.11.06,09.30.07.529490
8right00039.JPG,14.51662899,101.01662157,137.256,119.933,-39.12,165.76,-110.90,1.38397884741784,2.57724,16,2022.11.06,09.30.07.529670
8down00040.JPG,14.51652748,101.01668151,137.290,118.973,-77.93,-155.85,-54.63,1.36536603890678,2.56842,16,2022.11.06,09.30.08.614470
8left00040.JPG,14.51652685,101.01668138,137.256,118.939,-48.76,-163.18,47.19,1.36536603890678,2.56842,16,2022.11.06,09.30.08.618920
8front00040.JPG,14.51652560,101.01668262,137.259,118.943,-55.73,171.26,156.28,1.36536603890678,2.56842,16,2022.11.06,09.30.08.638570
8back00040.JPG,14.51652386,101.01668365,137.244,118.929,-33.82,-174.09,-34.25,1.36536603890678,2.56842,16,2022.11.06,09.30.08.649300
8right00040.JPG,14.51652438,101.01668385,137.247,118.933,-39.12,165.76,-110.90,1.36536603890678,2.56842,16,2022.11.06,09.30.08.649990
8left00041.JPG,14.51641495,101.01674780,137.252,118.939,-48.76,-163.18,47.19,1.3719822500674,2.59245,16,2022.11.06,09.30.09.816950
8right00041.JPG,14.51641228,101.01675040,137.246,118.933,-39.12,165.76,-110.90,1.3719822500674,2.59245,16,2022.11.06,09.30.09.850020
8down00041.JPG,14.51641163,101.01675028,137.287,118.973,-77.93,-155.85,-54.63,1.3719822500674,2.59245,16,2022.11.06,09.30.09.854710
8front00041.JPG,14.51640973,101.01675141,137.258,118.943,-55.73,171.26,156.28,1.3719822500674,2.59245,16,2022.11.06,09.30.09.879000
8back00041.JPG,14.51640802,101.01675243,137.244,118.929,-33.82,-174.09,-34.25,1.3719822500674,2.59245,16,2022.11.06,09.30.09.889390
8down00042.JPG,14.51628842,101.01682353,137.290,118.973,-77.93,-155.85,-54.63,1.34964305240312,2.5606,16,2022.11.06,09.30.11.173130
8left00042.JPG,14.51628768,101.01682347,137.256,118.939,-48.76,-163.18,47.19,1.34964305240312,2.5606,16,2022.11.06,09.30.11.178880
8front00042.JPG,14.51628638,101.01682476,137.258,118.943,-55.73,171.26,156.28,1.34964305240312,2.5606,16,2022.11.06,09.30.11.199130
8right00042.JPG,14.51628532,101.01682589,137.248,118.933,-39.12,165.76,-110.90,1.34964305240312,2.5606,16,2022.11.06,09.30.11.208750
8back00042.JPG,14.51628465,101.01682578,137.245,118.929,-33.82,-174.09,-34.25,1.34964305240312,2.5606,16,2022.11.06,09.30.11.209660
8down00043.JPG,14.51616508,101.01689707,137.309,119.973,-78.30,-160.26,-50.13,1.35889823198796,2.56062,16,2022.11.06,09.30.12.494430
8left00043.JPG,14.51616447,101.01689693,137.275,119.938,-47.80,-163.50,47.62,1.35889823198796,2.56062,16,2022.11.06,09.30.12.498690
8front00043.JPG,14.51616328,101.01689815,137.280,119.943,-55.83,173.00,155.04,1.35889823198796,2.56062,16,2022.11.06,09.30.12.517690
8right00043.JPG,14.51616208,101.01689936,137.270,119.933,-40.09,165.56,-110.58,1.35889823198796,2.56062,16,2022.11.06,09.30.12.528770
8back00043.JPG,14.51616143,101.01689925,137.266,119.929,-33.88,-175.27,-33.41,1.35889823198796,2.56062,16,2022.11.06,09.30.12.529570
8left00044.JPG,14.51605965,101.01695911,137.264,119.938,-47.80,-163.50,47.62,1.33332434227385,2.51321,16,2022.11.06,09.30.13.618630
8right00044.JPG,14.51605709,101.01696164,137.258,119.933,-40.09,165.56,-110.58,1.33332434227385,2.51321,16,2022.11.06,09.30.13.650540
8down00044.JPG,14.51605650,101.01696149,137.297,119.973,-78.30,-160.26,-50.13,1.33332434227385,2.51321,16,2022.11.06,09.30.13.654570
8front00044.JPG,14.51605459,101.01696263,137.266,119.943,-55.83,173.00,155.04,1.33332434227385,2.51321,16,2022.11.06,09.30.13.679040
8back00044.JPG,14.51605295,101.01696360,137.251,119.929,-33.88,-175.27,-33.41,1.33332434227385,2.51321,16,2022.11.06,09.30.13.688700
8right00045.JPG,14.51594175,101.01703070,137.253,119.933,-39.92,164.27,-109.76,1.3358652360549,2.50672,16,2022.11.06,09.30.14.889710
8down00045.JPG,14.51594110,101.01703059,137.293,119.973,-77.36,-161.83,-48.59,1.3358652360549,2.50672,16,2022.11.06,09.30.14.894460
8left00045.JPG,14.51594063,101.01703036,137.259,119.939,-47.58,-162.05,46.55,1.3358652360549,2.50672,16,2022.11.06,09.30.14.897220
8front00045.JPG,14.51593919,101.01703175,137.265,119.944,-56.82,172.84,155.17,1.3358652360549,2.50672,16,2022.11.06,09.30.14.919120
8back00045.JPG,14.51593747,101.01703278,137.249,119.928,-32.89,-175.34,-33.37,1.3358652360549,2.50672,16,2022.11.06,09.30.14.929710
8down00046.JPG,14.51583383,101.01709554,137.324,119.973,-78.30,-160.26,-50.13,1.35330035646193,2.55972,16,2022.11.06,09.30.16.542100
8left00046.JPG,14.51583325,101.01709539,137.289,119.938,-47.80,-163.50,47.62,1.35330035646193,2.55972,16,2022.11.06,09.30.16.582600
8front00046.JPG,14.51583194,101.01709669,137.294,119.943,-55.83,173.00,155.04,1.35330035646193,2.55972,16,2022.11.06,09.30.16.786800
8right00046.JPG,14.51583085,101.01709785,137.284,119.933,-40.09,165.56,-110.58,1.35330035646193,2.55972,16,2022.11.06,09.30.16.886800
8back00046.JPG,14.51583027,101.01709769,137.280,119.929,-33.88,-175.27,-33.41,1.35330035646193,2.55972,16,2022.11.06,09.30.16.887500
8left00047.JPG,14.51570277,101.01717351,137.310,119.938,-47.80,-163.50,47.62,1.35603992068818,2.58455,16,2022.11.06,09.30.17.458440
8front00047.JPG,14.51570141,101.01717482,137.315,119.943,-55.83,173.00,155.04,1.35603992068818,2.58455,16,2022.11.06,09.30.17.479080
8back00047.JPG,14.51569971,101.01717584,137.301,119.929,-33.88,-175.27,-33.41,1.35603992068818,2.58455,16,2022.11.06,09.30.17.489350
8right00047.JPG,14.51570019,101.01717605,137.305,119.933,-40.09,165.56,-110.58,1.35603992068818,2.58455,16,2022.11.06,09.30.17.490390
8down00047.JPG,14.51569961,101.01717589,137.345,119.973,-78.30,-160.26,-50.13,1.35603992068818,2.58455,16,2022.11.06,09.30.17.494280
8right00048.JPG,14.51559919,101.01723623,137.287,119.933,-40.09,165.56,-110.58,1.35784234563516,2.57696,16,2022.11.06,09.30.18.569730
8down00048.JPG,14.51559856,101.01723609,137.326,119.973,-78.30,-160.26,-50.13,1.35784234563516,2.57696,16,2022.11.06,09.30.18.574140
8left00048.JPG,14.51559798,101.01723594,137.292,119.938,-47.80,-163.50,47.62,1.35784234563516,2.57696,16,2022.11.06,09.30.18.578150
8front00048.JPG,14.51559654,101.01723730,137.295,119.943,-55.83,173.00,155.04,1.35784234563516,2.57696,16,2022.11.06,09.30.18.599680
8back00048.JPG,14.51559487,101.01723828,137.281,119.929,-33.88,-175.27,-33.41,1.35784234563516,2.57696,16,2022.11.06,09.30.18.609550
8right00049.JPG,14.51547932,101.01730749,137.281,119.933,-40.09,165.56,-110.58,1.35225031240521,2.57168,16,2022.11.06,09.30.19.848730
8down00049.JPG,14.51547857,101.01730743,137.321,119.973,-78.30,-160.26,-50.13,1.35225031240521,2.57168,16,2022.11.06,09.30.19.854450
8left00049.JPG,14.51547794,101.01730730,137.287,119.938,-47.80,-163.50,47.62,1.35225031240521,2.57168,16,2022.11.06,09.30.19.858920
8front00049.JPG,14.51547665,101.01730857,137.292,119.943,-55.83,173.00,155.04,1.35225031240521,2.57168,16,2022.11.06,09.30.19.878940
8back00049.JPG,14.51547508,101.01730950,137.278,119.929,-33.88,-175.27,-33.41,1.35225031240521,2.57168,16,2022.11.06,09.30.19.887770
8right00050.JPG,14.51535960,101.01737848,137.282,119.933,-40.09,165.56,-110.58,1.35574902139002,2.58492,16,2022.11.06,09.30.21.128730
8down00050.JPG,14.51535887,101.01737840,137.322,119.973,-78.30,-160.26,-50.13,1.35574902139002,2.58492,16,2022.11.06,09.30.21.134260
8left00050.JPG,14.51535839,101.01737819,137.287,119.938,-47.80,-163.50,47.62,1.35574902139002,2.58492,16,2022.11.06,09.30.21.137240
8front00050.JPG,14.51535688,101.01737958,137.291,119.943,-55.83,173.00,155.04,1.35574902139002,2.58492,16,2022.11.06,09.30.21.159610
8back00050.JPG,14.51535539,101.01738047,137.276,119.929,-33.88,-175.27,-33.41,1.35574902139002,2.58492,16,2022.11.06,09.30.21.167710
8down00051.JPG,14.51524344,101.01744700,137.335,119.973,-77.93,-155.85,-54.63,1.35191436918172,2.58812,16,2022.11.06,09.30.22.373050
8left00051.JPG,14.51524266,101.01744696,137.302,119.939,-48.76,-163.18,47.19,1.35191436918172,2.58812,16,2022.11.06,09.30.22.379180
8right00051.JPG,14.51524031,101.01744936,137.295,119.933,-39.12,165.76,-110.90,1.35191436918172,2.58812,16,2022.11.06,09.30.22.408720
8front00051.JPG,14.51523760,101.01745046,137.306,119.943,-55.73,171.26,156.28,1.35191436918172,2.58812,16,2022.11.06,09.30.22.439410
8back00051.JPG,14.51523599,101.01745142,137.292,119.929,-33.82,-174.09,-34.25,1.35191436918172,2.58812,16,2022.11.06,09.30.22.448690
8left00052.JPG,14.51513056,101.01751371,137.326,119.938,-47.80,-163.50,47.62,1.35321947613829,2.58619,16,2022.11.06,09.30.23.578530
8front00052.JPG,14.51512926,101.01751499,137.330,119.943,-55.83,173.00,155.04,1.35321947613829,2.58619,16,2022.11.06,09.30.23.598640
8back00052.JPG,14.51512758,101.01751599,137.316,119.929,-33.88,-175.27,-33.41,1.35321947613829,2.58619,16,2022.11.06,09.30.23.608670
8right00052.JPG,14.51512806,101.01751621,137.320,119.933,-40.09,165.56,-110.58,1.35321947613829,2.58619,16,2022.11.06,09.30.23.609720
8down00052.JPG,14.51512754,101.01751602,137.360,119.973,-78.30,-160.26,-50.13,1.35321947613829,2.58619,16,2022.11.06,09.30.23.613020
8right00053.JPG,14.51501958,101.01758087,137.327,119.933,-39.12,165.76,-110.90,1.35202583795577,2.57101,16,2022.11.06,09.30.24.769630
8down00053.JPG,14.51501893,101.01758075,137.367,119.973,-77.93,-155.85,-54.63,1.35202583795577,2.57101,16,2022.11.06,09.30.24.774350
8left00053.JPG,14.51501834,101.01758060,137.333,119.939,-48.76,-163.18,47.19,1.35202583795577,2.57101,16,2022.11.06,09.30.24.778390
8front00053.JPG,14.51501697,101.01758192,137.336,119.943,-55.73,171.26,156.28,1.35202583795577,2.57101,16,2022.11.06,09.30.24.799290
8back00053.JPG,14.51501530,101.01758291,137.323,119.929,-33.82,-174.09,-34.25,1.35202583795577,2.57101,16,2022.11.06,09.30.24.809170
8front00054.JPG,14.51489356,101.01765542,137.364,119.942,-54.74,171.45,156.13,1.3488534622041,2.56687,16,2022.11.06,09.30.26.120190
8back00054.JPG,14.51489202,101.01765633,137.351,119.929,-34.82,-174.00,-34.31,1.3488534622041,2.56687,16,2022.11.06,09.30.26.128660
8right00054.JPG,14.51489619,101.01765436,137.354,119.932,-39.27,167.04,-111.71,1.3488534622041,2.56687,16,2022.11.06,09.30.26.903100
8down00054.JPG,14.51489554,101.01765423,137.395,119.973,-78.83,-153.70,-56.74,1.3488534622041,2.56687,16,2022.11.06,09.30.26.949400
8left00054.JPG,14.51489504,101.01765403,137.361,119.939,-48.97,-164.66,48.31,1.3488534622041,2.56687,16,2022.11.06,09.30.26.981400
8down00055.JPG,14.51478362,101.01772122,137.411,119.973,-78.30,-160.26,-50.13,1.34673228226697,2.55896,16,2022.11.06,09.30.27.293000
8left00055.JPG,14.51478288,101.01772116,137.378,119.938,-47.80,-163.50,47.62,1.34673228226697,2.55896,16,2022.11.06,09.30.27.298760
8front00055.JPG,14.51478161,101.01772243,137.385,119.943,-55.83,173.00,155.04,1.34673228226697,2.55896,16,2022.11.06,09.30.27.318550
8right00055.JPG,14.51478039,101.01772367,137.377,119.933,-40.09,165.56,-110.58,1.34673228226697,2.55896,16,2022.11.06,09.30.27.329950
8back00055.JPG,14.51477620,101.01772569,137.378,119.929,-33.88,-175.27,-33.41,1.34673228226697,2.55896,16,2022.11.06,09.30.27.368720
8down00056.JPG,14.51467185,101.01778833,137.434,119.973,-77.93,-155.85,-54.63,1.35259572792464,2.57462,16,2022.11.06,09.30.28.494080
8left00056.JPG,14.51467124,101.01778819,137.400,119.939,-48.76,-163.18,47.19,1.35259572792464,2.57462,16,2022.11.06,09.30.28.498440
8front00056.JPG,14.51466994,101.01778948,137.404,119.943,-55.73,171.26,156.28,1.35259572792464,2.57462,16,2022.11.06,09.30.28.518630
8back00056.JPG,14.51466824,101.01779048,137.390,119.929,-33.82,-174.09,-34.25,1.35259572792464,2.57462,16,2022.11.06,09.30.28.528830
8right00056.JPG,14.51466873,101.01779070,137.394,119.933,-39.12,165.76,-110.90,1.35259572792464,2.57462,16,2022.11.06,09.30.28.529890
8left00057.JPG,14.51455208,101.01785945,137.437,119.937,-48.91,175.43,62.45,1.3401877089796,2.53998,16,2022.11.06,09.30.29.778930
8right00057.JPG,14.51454968,101.01786189,137.435,119.932,-40.93,-176.03,-123.61,1.3401877089796,2.53998,16,2022.11.06,09.30.29.809970
8down00057.JPG,14.51454918,101.01786169,137.476,119.972,-85.00,-53.08,-157.81,1.3401877089796,2.53998,16,2022.11.06,09.30.29.813110
8front00057.JPG,14.51454723,101.01786284,137.442,119.933,-41.87,174.63,152.80,1.3401877089796,2.53998,16,2022.11.06,09.30.29.838710
8back00057.JPG,14.51454561,101.01786384,137.448,119.937,-47.85,-174.04,-35.22,1.3401877089796,2.53998,16,2022.11.06,09.30.29.848710
8front00058.JPG,14.51444399,101.01792525,137.557,119.929,-34.93,176.40,151.59,1.34644282834438,2.53076,16,2022.11.06,09.30.31.118990
8back00058.JPG,14.51444259,101.01792612,137.570,119.942,-54.91,-174.86,-34.69,1.34644282834438,2.53076,16,2022.11.06,09.30.31.128780
8right00058.JPG,14.51444307,101.01792632,137.562,119.934,-41.22,-166.65,-129.89,1.34644282834438,2.53076,16,2022.11.06,09.30.31.130220
8down00058.JPG,14.51444542,101.01792438,137.601,119.972,-79.56,-16.53,165.79,1.34644282834438,2.53076,16,2022.11.06,09.30.31.929900
8left00058.JPG,14.51444484,101.01792423,137.565,119.937,-47.04,165.24,69.92,1.34644282834438,2.53076,16,2022.11.06,09.30.31.981900
8down00059.JPG,14.51434023,101.01798772,137.563,118.973,-72.57,-114.01,-102.97,1.33750477296345,2.54118,16,2022.11.06,09.30.33.254570
8left00059.JPG,14.51433987,101.01798743,137.537,118.948,-60.24,-165.79,41.60,1.33750477296345,2.54118,16,2022.11.06,09.30.33.258610
8front00059.JPG,14.51433988,101.01798786,137.529,118.942,-49.54,155.07,161.48,1.33750477296345,2.54118,16,2022.11.06,09.30.33.279430
8back00059.JPG,14.51433893,101.01798854,137.520,118.933,-36.05,-160.22,-49.95,1.33750477296345,2.54118,16,2022.11.06,09.30.33.289110
8right00059.JPG,14.51433949,101.01798865,137.514,118.927,-28.76,172.01,-122.14,1.33750477296345,2.54118,16,2022.11.06,09.30.33.290130
8right00060.JPG,14.51431067,101.01802738,137.483,119.930,-37.89,174.93,161.12,1.35338428459917,2.57067,16,2022.11.06,09.30.35.130510
8down00060.JPG,14.51431027,101.01802770,137.526,119.972,-81.94,-119.85,-172.40,1.35338428459917,2.57067,16,2022.11.06,09.30.35.134560
8front00060.JPG,14.51431005,101.01802818,137.493,119.938,-48.54,169.42,75.48,1.35338428459917,2.57067,16,2022.11.06,09.30.35.159380
8back00060.JPG,14.51431034,101.01802934,137.489,119.932,-40.60,-170.79,-118.52,1.35338428459917,2.57067,16,2022.11.06,09.30.35.169510
8left00060.JPG,14.51430998,101.01802659,137.490,119.940,-51.82,-173.52,-27.10,1.35338428459917,2.57067,16,2022.11.06,09.30.35.986100
8left00061.JPG,14.51437565,101.01815244,137.515,118.945,-57.12,-165.15,-56.56,1.34492487080134,2.56216,16,2022.11.06,09.30.38.738460
8right00061.JPG,14.51437687,101.01815271,137.497,118.928,-31.65,170.59,140.97,1.34492487080134,2.56216,16,2022.11.06,09.30.38.769710
8down00061.JPG,14.51437665,101.01815313,137.541,118.973,-74.77,-122.00,167.08,1.34492487080134,2.56216,16,2022.11.06,09.30.38.774210
8front00061.JPG,14.51437684,101.01815351,137.509,118.942,-51.32,159.12,60.75,1.34492487080134,2.56216,16,2022.11.06,09.30.38.798920
8back00061.JPG,14.51437766,101.01815440,137.499,118.932,-35.72,-164.07,-145.30,1.34492487080134,2.56216,16,2022.11.06,09.30.38.808880
8left00062.JPG,14.51440973,101.01817645,137.519,118.945,-58.87,-174.19,-93.98,1.33259944398157,2.51783,16,2022.11.06,09.30.39.898140
8right00062.JPG,14.51441084,101.01817580,137.501,118.927,-30.95,176.50,92.80,1.33259944398157,2.51783,16,2022.11.06,09.30.39.929920
8down00062.JPG,14.51441099,101.01817627,137.547,118.973,-75.69,-102.22,102.86,1.33259944398157,2.51783,16,2022.11.06,09.30.39.934670
8front00062.JPG,14.51441139,101.01817644,137.512,118.938,-46.23,159.56,15.32,1.33259944398157,2.51783,16,2022.11.06,09.30.39.958700
8back00062.JPG,14.51441258,101.01817653,137.509,118.934,-40.40,-161.50,168.02,1.33259944398157,2.51783,16,2022.11.06,09.30.39.968670
8left00063.JPG,14.51453978,101.01811133,137.425,118.935,-37.43,-155.80,-136.28,1.33993075809909,2.51377,16,2022.11.06,09.30.43.458910
8right00063.JPG,14.51454097,101.01810957,137.433,118.941,-46.41,151.82,80.21,1.33993075809909,2.51377,16,2022.11.06,09.30.43.490460
8down00063.JPG,14.51454138,101.01810982,137.466,118.974,-70.38,165.80,164.04,1.33993075809909,2.51377,16,2022.11.06,09.30.43.494280
8front00063.JPG,14.51454229,101.01810926,137.444,118.950,-63.67,-169.29,-38.99,1.33993075809909,2.51377,16,2022.11.06,09.30.43.518920
8back00063.JPG,14.51454353,101.01810848,137.420,118.926,-25.84,174.75,152.93,1.33993075809909,2.51377,16,2022.11.06,09.30.43.528860
8down00064.JPG,14.51465917,101.01803824,137.542,118.973,-71.34,164.99,164.81,1.34746559985775,2.54781,16,2022.11.06,09.30.45.254770
8left00064.JPG,14.51465973,101.01803840,137.503,118.935,-37.69,-157.02,-135.54,1.34746559985775,2.54781,16,2022.11.06,09.30.45.258950
8front00064.JPG,14.51466086,101.01803722,137.519,118.949,-62.68,-169.60,-38.72,1.34746559985775,2.54781,16,2022.11.06,09.30.45.279670
8back00064.JPG,14.51466238,101.01803627,137.496,118.926,-26.84,174.67,152.96,1.34746559985775,2.54781,16,2022.11.06,09.30.45.289400
8right00064.JPG,14.51466184,101.01803610,137.511,118.941,-46.77,153.18,79.22,1.34746559985775,2.54781,16,2022.11.06,09.30.45.289970
8down00065.JPG,14.51477543,101.01796886,137.583,119.972,-79.24,158.42,171.93,1.34722363626088,2.55065,16,2022.11.06,09.30.46.534360
8left00065.JPG,14.51477605,101.01796900,137.543,119.933,-40.25,-166.85,-128.58,1.34722363626088,2.55065,16,2022.11.06,09.30.46.538570
8front00065.JPG,14.51477748,101.01796765,137.553,119.942,-54.83,-173.15,-34.91,1.34722363626088,2.55065,16,2022.11.06,09.30.46.559120
8right00065.JPG,14.51477857,101.01796649,137.549,119.938,-48.01,164.96,71.30,1.34722363626088,2.55065,16,2022.11.06,09.30.46.568680
8back00065.JPG,14.51477924,101.01796660,137.539,119.929,-34.88,175.20,153.45,1.34722363626088,2.55065,16,2022.11.06,09.30.46.569570
8left00066.JPG,14.51489562,101.01789810,137.611,119.933,-40.39,-168.15,-127.74,1.33648147319744,2.53405,16,2022.11.06,09.30.47.738920
8right00066.JPG,14.51489828,101.01789550,137.616,119.938,-48.20,166.43,70.20,1.33648147319744,2.53405,16,2022.11.06,09.30.47.770110
8down00066.JPG,14.51489878,101.01789571,137.650,119.972,-80.16,156.23,174.09,1.33648147319744,2.53405,16,2022.11.06,09.30.47.772960
8front00066.JPG,14.51490085,101.01789448,137.618,119.941,-53.83,-173.30,-34.80,1.33648147319744,2.53405,16,2022.11.06,09.30.47.797720
8back00066.JPG,14.51490258,101.01789345,137.607,119.929,-35.88,175.12,153.49,1.33648147319744,2.53405,16,2022.11.06,09.30.47.807730
8left00067.JPG,14.51501606,101.01782627,137.648,119.933,-40.52,-169.45,-126.90,1.35419696458824,2.53427,16,2022.11.06,09.30.48.978720
8front00067.JPG,14.51501741,101.01782496,137.657,119.940,-52.84,-173.43,-34.68,1.35419696458824,2.53427,16,2022.11.06,09.30.48.998840
8right00067.JPG,14.51501864,101.01782372,137.655,119.938,-48.36,167.91,69.10,1.35419696458824,2.53427,16,2022.11.06,09.30.49.101400
8down00067.JPG,14.51501912,101.01782394,137.689,119.972,-81.06,153.60,176.68,1.35419696458824,2.53427,16,2022.11.06,09.30.49.129500
8back00067.JPG,14.51501913,101.01782393,137.647,119.930,-36.88,175.05,153.54,1.35419696458824,2.53427,16,2022.11.06,09.30.49.915000
8left00068.JPG,14.51513306,101.01775638,137.658,119.932,-39.27,-167.04,-128.29,1.35309147425442,2.54782,16,2022.11.06,09.30.50.218920
8right00068.JPG,14.51513554,101.01775389,137.664,119.939,-48.97,164.66,71.69,1.35309147425442,2.54782,16,2022.11.06,09.30.50.249970
8down00068.JPG,14.51513616,101.01775403,137.698,119.973,-78.83,153.70,176.74,1.35309147425442,2.54782,16,2022.11.06,09.30.50.254360
8front00068.JPG,14.51513799,101.01775294,137.668,119.942,-54.74,-171.45,-36.13,1.35309147425442,2.54782,16,2022.11.06,09.30.50.278000
8back00068.JPG,14.51513976,101.01775188,137.655,119.929,-34.82,174.00,154.31,1.35309147425442,2.54782,16,2022.11.06,09.30.50.289070
8right00069.JPG,14.51525497,101.01768266,137.642,119.938,-48.01,164.96,71.30,1.36408033781006,2.56889,16,2022.11.06,09.30.51.530050
8down00069.JPG,14.51525557,101.01768280,137.676,119.972,-79.24,158.42,171.93,1.36408033781006,2.56889,16,2022.11.06,09.30.51.534280
8left00069.JPG,14.51525618,101.01768294,137.637,119.933,-40.25,-166.85,-128.58,1.36408033781006,2.56889,16,2022.11.06,09.30.51.538590
8front00069.JPG,14.51525751,101.01768164,137.645,119.942,-54.83,-173.15,-34.91,1.36408033781006,2.56889,16,2022.11.06,09.30.51.559080
8back00069.JPG,14.51525920,101.01768064,137.632,119.929,-34.88,175.20,153.45,1.36408033781006,2.56889,16,2022.11.06,09.30.51.569190
8down00070.JPG,14.51536362,101.01761847,137.668,118.973,-78.30,160.26,170.13,1.35660139171387,2.57041,16,2022.11.06,09.30.52.693840
8left00070.JPG,14.51536427,101.01761859,137.629,118.933,-40.09,-165.56,-129.42,1.35660139171387,2.57041,16,2022.11.06,09.30.52.698470
8front00070.JPG,14.51536565,101.01761726,137.638,118.943,-55.83,-173.00,-35.04,1.35660139171387,2.57041,16,2022.11.06,09.30.52.719560
8back00070.JPG,14.51536721,101.01761634,137.624,118.929,-33.88,175.27,153.41,1.35660139171387,2.57041,16,2022.11.06,09.30.52.728330
8right00070.JPG,14.51536680,101.01761607,137.634,118.938,-47.80,163.50,72.38,1.35660139171387,2.57041,16,2022.11.06,09.30.52.730180
8right00071.JPG,14.51547460,101.01755198,137.645,118.938,-47.80,163.50,72.38,1.34851271647693,2.5442,16,2022.11.06,09.30.53.889360
8down00071.JPG,14.51547525,101.01755210,137.679,118.973,-78.30,160.26,170.13,1.34851271647693,2.5442,16,2022.11.06,09.30.53.894130
8left00071.JPG,14.51547576,101.01755231,137.640,118.933,-40.09,-165.56,-129.42,1.34851271647693,2.5442,16,2022.11.06,09.30.53.897300
8front00071.JPG,14.51547716,101.01755097,137.652,118.943,-55.83,-173.00,-35.04,1.34851271647693,2.5442,16,2022.11.06,09.30.53.918640
8back00071.JPG,14.51547884,101.01754996,137.639,118.929,-33.88,175.27,153.41,1.34851271647693,2.5442,16,2022.11.06,09.30.53.928780
8down00072.JPG,14.51559415,101.01748122,137.686,118.972,-79.24,158.42,171.93,1.35387594826853,2.54858,16,2022.11.06,09.30.55.173040
8left00072.JPG,14.51559490,101.01748128,137.646,118.933,-40.25,-166.85,-128.58,1.35387594826853,2.54858,16,2022.11.06,09.30.55.178830
8front00072.JPG,14.51559620,101.01747999,137.654,118.942,-54.83,-173.15,-34.91,1.35387594826853,2.54858,16,2022.11.06,09.30.55.199040
8back00072.JPG,14.51559784,101.01747902,137.642,118.929,-34.88,175.20,153.45,1.35387594826853,2.54858,16,2022.11.06,09.30.55.208670
8right00072.JPG,14.51559740,101.01747877,137.651,118.938,-48.01,164.96,71.30,1.35387594826853,2.54858,16,2022.11.06,09.30.55.210190
8down00073.JPG,14.51571365,101.01740999,137.695,119.972,-79.24,158.42,171.93,1.34851385791915,2.54982,16,2022.11.06,09.30.56.453930
8left00073.JPG,14.51571433,101.01741009,137.656,119.933,-40.25,-166.85,-128.58,1.34851385791915,2.54982,16,2022.11.06,09.30.56.458980
8front00073.JPG,14.51571551,101.01740888,137.665,119.942,-54.83,-173.15,-34.91,1.34851385791915,2.54982,16,2022.11.06,09.30.56.477750
8back00073.JPG,14.51571731,101.01740781,137.652,119.929,-34.88,175.20,153.45,1.34851385791915,2.54982,16,2022.11.06,09.30.56.489140
8right00073.JPG,14.51571677,101.01740762,137.662,119.938,-48.01,164.96,71.30,1.34851385791915,2.54982,16,2022.11.06,09.30.56.489570
8down00074.JPG,14.51582535,101.01734314,137.705,119.972,-79.71,151.18,179.22,1.34747390479371,2.54351,16,2022.11.06,09.30.57.652940
8left00074.JPG,14.51582596,101.01734328,137.664,119.932,-39.41,-168.32,-127.48,1.34747390479371,2.54351,16,2022.11.06,09.30.57.657260
8front00074.JPG,14.51582737,101.01734193,137.672,119.941,-53.74,-171.63,-35.98,1.34747390479371,2.54351,16,2022.11.06,09.30.57.678650
8back00074.JPG,14.51582908,101.01734090,137.660,119.930,-35.81,173.91,154.36,1.34747390479371,2.54351,16,2022.11.06,09.30.57.689130
8right00074.JPG,14.51582859,101.01734069,137.669,119.939,-49.17,166.16,70.56,1.34747390479371,2.54351,16,2022.11.06,09.30.57.690110
8down00075.JPG,14.51593219,101.01727799,137.630,119.973,-77.93,155.85,174.63,1.33535803506026,2.48376,16,2022.11.06,09.30.58.813000
8left00075.JPG,14.51593290,101.01727806,137.590,119.933,-39.12,-165.76,-129.10,1.33535803506026,2.48376,16,2022.11.06,09.30.58.818490
8front00075.JPG,14.51593420,101.01727676,137.600,119.943,-55.73,-171.26,-36.28,1.33535803506026,2.48376,16,2022.11.06,09.30.58.838830
8back00075.JPG,14.51593587,101.01727576,137.586,119.929,-33.82,174.09,154.25,1.33535803506026,2.48376,16,2022.11.06,09.30.58.848850
8right00075.JPG,14.51593537,101.01727555,137.596,119.939,-48.76,163.18,72.81,1.33535803506026,2.48376,16,2022.11.06,09.30.58.849740
8left00076.JPG,14.51605618,101.01720483,137.564,118.933,-39.12,-165.76,-129.10,1.35524811016286,2.54072,16,2022.11.06,09.31.00.138230
8right00076.JPG,14.51605876,101.01720232,137.570,118.939,-48.76,163.18,72.81,1.35524811016286,2.54072,16,2022.11.06,09.31.00.170250
8down00076.JPG,14.51605940,101.01720245,137.604,118.973,-77.93,155.85,174.63,1.35524811016286,2.54072,16,2022.11.06,09.31.00.174870
8front00076.JPG,14.51606142,101.01720127,137.574,118.943,-55.73,-171.26,-36.28,1.35524811016286,2.54072,16,2022.11.06,09.31.00.200340
8back00076.JPG,14.51606305,101.01720031,137.560,118.929,-33.82,174.09,154.25,1.35524811016286,2.54072,16,2022.11.06,09.31.00.209790
8left00077.JPG,14.51617218,101.01713672,137.590,118.933,-40.09,-165.56,-129.42,1.35427661963869,2.54748,16,2022.11.06,09.31.01.378440
8right00077.JPG,14.51617458,101.01713429,137.595,118.938,-47.80,163.50,72.38,1.35427661963869,2.54748,16,2022.11.06,09.31.01.408660
8down00077.JPG,14.51617520,101.01713443,137.629,118.973,-78.30,160.26,170.13,1.35427661963869,2.54748,16,2022.11.06,09.31.01.413040
8front00077.JPG,14.51617714,101.01713329,137.600,118.943,-55.83,-173.00,-35.04,1.35427661963869,2.54748,16,2022.11.06,09.31.01.437770
8back00077.JPG,14.51618255,101.01713009,137.588,118.929,-33.88,175.27,153.41,1.35427661963869,2.54748,16,2022.11.06,09.31.01.487700
8right00078.JPG,14.51629020,101.01706598,137.623,118.938,-47.80,163.50,72.38,1.3473738877164,2.54838,16,2022.11.06,09.31.02.648540
8down00078.JPG,14.51629083,101.01706611,137.657,118.973,-78.30,160.26,170.13,1.3473738877164,2.54838,16,2022.11.06,09.31.02.653050
8left00078.JPG,14.51629154,101.01706619,137.618,118.933,-40.09,-165.56,-129.42,1.3473738877164,2.54838,16,2022.11.06,09.31.02.658400
8front00078.JPG,14.51629289,101.01706488,137.630,118.943,-55.83,-173.00,-35.04,1.3473738877164,2.54838,16,2022.11.06,09.31.02.679150
8back00078.JPG,14.51629460,101.01706387,137.616,118.929,-33.88,175.27,153.41,1.3473738877164,2.54838,16,2022.11.06,09.31.02.689510
8left00079.JPG,14.51639641,101.01700384,137.613,118.933,-39.12,-165.76,-129.10,1.36142852518963,2.57622,16,2022.11.06,09.31.03.778800
8right00079.JPG,14.51639880,101.01700141,137.620,118.939,-48.76,163.18,72.81,1.36142852518963,2.57622,16,2022.11.06,09.31.03.808710
8down00079.JPG,14.51639949,101.01700150,137.654,118.973,-77.93,155.85,174.63,1.36142852518963,2.57622,16,2022.11.06,09.31.03.813870
8front00079.JPG,14.51640144,101.01700034,137.626,118.943,-55.73,-171.26,-36.28,1.36142852518963,2.57622,16,2022.11.06,09.31.03.838680
8back00079.JPG,14.51640317,101.01699931,137.612,118.929,-33.82,174.09,154.25,1.36142852518963,2.57622,16,2022.11.06,09.31.03.849240
8down00080.JPG,14.51651529,101.01693241,137.700,119.973,-78.83,153.70,176.74,1.35431184658483,2.55864,16,2022.11.06,09.31.05.529200
8left00080.JPG,14.51651602,101.01693248,137.660,119.932,-39.27,-167.04,-128.29,1.35431184658483,2.55864,16,2022.11.06,09.31.05.584800
8front00080.JPG,14.51651738,101.01693115,137.669,119.942,-54.74,-171.45,-36.13,1.35431184658483,2.55864,16,2022.11.06,09.31.05.794100
8back00080.JPG,14.51651889,101.01693025,137.656,119.929,-34.82,174.00,154.31,1.35431184658483,2.55864,16,2022.11.06,09.31.05.876600
8right00080.JPG,14.51651841,101.01693004,137.666,119.939,-48.97,164.66,71.69,1.35431184658483,2.55864,16,2022.11.06,09.31.05.887000
8right00081.JPG,14.51664542,101.01685413,137.666,119.938,-48.01,164.96,71.30,1.36615242754972,2.55804,16,2022.11.06,09.31.06.450430
8down00081.JPG,14.51664602,101.01685427,137.700,119.972,-79.24,158.42,171.93,1.36615242754972,2.55804,16,2022.11.06,09.31.06.454600
8left00081.JPG,14.51664672,101.01685436,137.661,119.933,-40.25,-166.85,-128.58,1.36615242754972,2.55804,16,2022.11.06,09.31.06.459800
8front00081.JPG,14.51664795,101.01685312,137.670,119.942,-54.83,-173.15,-34.91,1.36615242754972,2.55804,16,2022.11.06,09.31.06.479200
8back00081.JPG,14.51664964,101.01685211,137.657,119.929,-34.88,175.20,153.45,1.36615242754972,2.55804,16,2022.11.06,09.31.06.489340
8left00082.JPG,14.51674371,101.01679646,137.664,119.932,-39.27,-167.04,-128.29,1.36241384645048,2.55341,16,2022.11.06,09.31.07.499060
8right00082.JPG,14.51674621,101.01679396,137.670,119.939,-48.97,164.66,71.69,1.36241384645048,2.55341,16,2022.11.06,09.31.07.530340
8down00082.JPG,14.51674681,101.01679411,137.704,119.973,-78.83,153.70,176.74,1.36241384645048,2.55341,16,2022.11.06,09.31.07.534530
8front00082.JPG,14.51674875,101.01679295,137.674,119.942,-54.74,-171.45,-36.13,1.36241384645048,2.55341,16,2022.11.06,09.31.07.559270
8back00082.JPG,14.51675044,101.01679195,137.661,119.929,-34.82,174.00,154.31,1.36241384645048,2.55341,16,2022.11.06,09.31.07.569390
8left00083.JPG,14.51691906,101.01669225,137.662,118.932,-39.27,-167.04,-128.29,1.34768436104304,2.54673,16,2022.11.06,09.31.09.378940
8right00083.JPG,14.51692158,101.01668975,137.669,118.939,-48.97,164.66,71.69,1.34768436104304,2.54673,16,2022.11.06,09.31.09.410360
8down00083.JPG,14.51692215,101.01668992,137.703,118.973,-78.83,153.70,176.74,1.34768436104304,2.54673,16,2022.11.06,09.31.09.414150
8front00083.JPG,14.51692414,101.01668873,137.674,118.942,-54.74,-171.45,-36.13,1.34768436104304,2.54673,16,2022.11.06,09.31.09.439360
8back00083.JPG,14.51692583,101.01668773,137.661,118.929,-34.82,174.00,154.31,1.34768436104304,2.54673,16,2022.11.06,09.31.09.449470
8front00084.JPG,14.51698757,101.01665091,137.687,118.941,-53.74,-171.63,-35.98,1.3457150593272,2.54022,16,2022.11.06,09.31.10.119510
8back00084.JPG,14.51698920,101.01664994,137.675,118.930,-35.81,173.91,154.36,1.3457150593272,2.54022,16,2022.11.06,09.31.10.128990
8right00084.JPG,14.51698487,101.01665202,137.685,118.939,-49.17,166.16,70.56,1.3457150593272,2.54022,16,2022.11.06,09.31.10.886500
8down00084.JPG,14.51698558,101.01665210,137.718,118.972,-79.71,151.18,179.22,1.3457150593272,2.54022,16,2022.11.06,09.31.10.941100
8left00084.JPG,14.51698621,101.01665223,137.678,118.932,-39.41,-168.32,-127.48,1.3457150593272,2.54022,16,2022.11.06,09.31.10.986000
8left00085.JPG,14.51709059,101.01658981,137.673,118.932,-39.27,-167.04,-128.29,1.35672411775571,2.54105,16,2022.11.06,09.31.11.218840
8right00085.JPG,14.51709303,101.01658734,137.681,118.939,-48.97,164.66,71.69,1.35672411775571,2.54105,16,2022.11.06,09.31.11.249630
8down00085.JPG,14.51709370,101.01658744,137.715,118.973,-78.83,153.70,176.74,1.35672411775571,2.54105,16,2022.11.06,09.31.11.254600
8front00085.JPG,14.51709559,101.01658631,137.685,118.942,-54.74,-171.45,-36.13,1.35672411775571,2.54105,16,2022.11.06,09.31.11.278910
8back00085.JPG,14.51709723,101.01658533,137.672,118.929,-34.82,174.00,154.31,1.35672411775571,2.54105,16,2022.11.06,09.31.11.288600
8left00086.JPG,14.51721359,101.01651629,137.692,118.932,-39.27,-167.04,-128.29,1.35438892143284,2.53988,16,2022.11.06,09.31.12.537300
8right00086.JPG,14.51721622,101.01651371,137.699,118.939,-48.97,164.66,71.69,1.35438892143284,2.53988,16,2022.11.06,09.31.12.569890
8down00086.JPG,14.51721684,101.01651384,137.733,118.973,-78.83,153.70,176.74,1.35438892143284,2.53988,16,2022.11.06,09.31.12.574250
8front00086.JPG,14.51721880,101.01651267,137.703,118.942,-54.74,-171.45,-36.13,1.35438892143284,2.53988,16,2022.11.06,09.31.12.599170
8back00086.JPG,14.51722045,101.01651169,137.690,118.929,-34.82,174.00,154.31,1.35438892143284,2.53988,16,2022.11.06,09.31.12.608850
8right00087.JPG,14.51732457,101.01644915,137.705,119.939,-48.97,164.66,71.69,1.35420450050943,2.53526,16,2022.11.06,09.31.13.729760
8down00087.JPG,14.51732516,101.01644930,137.739,119.973,-78.83,153.70,176.74,1.35420450050943,2.53526,16,2022.11.06,09.31.13.733850
8left00087.JPG,14.51732569,101.01644949,137.698,119.932,-39.27,-167.04,-128.29,1.35420450050943,2.53526,16,2022.11.06,09.31.13.737330
8front00087.JPG,14.51732710,101.01644814,137.707,119.942,-54.74,-171.45,-36.13,1.35420450050943,2.53526,16,2022.11.06,09.31.13.758680
8back00087.JPG,14.51732879,101.01644714,137.693,119.929,-34.82,174.00,154.31,1.35420450050943,2.53526,16,2022.11.06,09.31.13.768840
8down00088.JPG,14.51743693,101.01638256,137.734,118.972,-79.24,158.42,171.93,1.35569139766394,2.5698,16,2022.11.06,09.31.14.932930
8left00088.JPG,14.51743763,101.01638265,137.695,118.933,-40.25,-166.85,-128.58,1.35569139766394,2.5698,16,2022.11.06,09.31.14.938220
8front00088.JPG,14.51743888,101.01638140,137.706,118.942,-54.83,-173.15,-34.91,1.35569139766394,2.5698,16,2022.11.06,09.31.14.957820
8right00088.JPG,14.51744006,101.01638020,137.703,118.938,-48.01,164.96,71.30,1.35569139766394,2.5698,16,2022.11.06,09.31.14.968730
8back00088.JPG,14.51744065,101.01638035,137.694,118.929,-34.88,175.20,153.45,1.35569139766394,2.5698,16,2022.11.06,09.31.14.968810
8right00089.JPG,14.51755984,101.01630887,137.761,118.938,-48.01,164.96,71.30,1.34717376993467,2.56001,16,2022.11.06,09.31.16.250190
8down00089.JPG,14.51756047,101.01630900,137.795,119.972,-79.24,158.42,171.93,1.34717376993467,2.56001,16,2022.11.06,09.31.16.254700
8left00089.JPG,14.51756092,101.01630924,137.756,119.933,-40.25,-166.85,-128.58,1.34717376993467,2.56001,16,2022.11.06,09.31.16.257330
8front00089.JPG,14.51756224,101.01630795,137.765,119.942,-54.83,-173.15,-34.91,1.34717376993467,2.56001,16,2022.11.06,09.31.16.277790
8back00089.JPG,14.51756401,101.01630690,137.753,119.929,-34.88,175.20,153.45,1.34717376993467,2.56001,16,2022.11.06,09.31.16.288840
8right00090.JPG,14.51767162,101.01624235,137.808,119.938,-48.01,164.96,71.30,1.3485999791265,2.54242,16,2022.11.06,09.31.17.449530
8down00090.JPG,14.51767229,101.01624246,137.842,119.972,-79.24,158.42,171.93,1.3485999791265,2.54242,16,2022.11.06,09.31.17.454400
8left00090.JPG,14.51767289,101.01624261,137.802,119.933,-40.25,-166.85,-128.58,1.3485999791265,2.54242,16,2022.11.06,09.31.17.458660
8front00090.JPG,14.51767420,101.01624133,137.811,119.942,-54.83,-173.15,-34.91,1.3485999791265,2.54242,16,2022.11.06,09.31.17.478840
