Id,Camera,Group,Lat,Lon,AbsAlt,RltAlt,X_Pitch,X_Roll,Yaw,Pitch,Roll,X_Yaw,StdLat,StdLon,StdHgt,Q,Date,Time,AircraftType,Debug 
00001,5,0001,13.79502050,100.80371008,-7.305725,0.322363, 0, 2,148,0.02000427,0.01000000,0.00000000,1.29490,1.43851,3.39820,16,2023.03.17,18.13.27.989467,M300_RTK,psdk T=43  err=0,1,1
00002,3,0001,13.79502050,100.80371008,-7.305706,0.322363, 0, 2,148,0.02000427,0.01000000,0.00000000,1.29490,1.43851,3.39820,16,2023.03.17,18.13.27.989986,M300_RTK,psdk T=43  err=0,1,1
00003,1,0001,13.79502050,100.80371008,-7.305699,0.322363, 0, 2,148,0.02000427,0.01000000,0.00000000,1.29490,1.43851,3.39820,16,2023.03.17,18.13.27.990179,M300_RTK,psdk T=43  err=0,1,1
00004,4,0001,13.79502050,100.80371008,-7.305687,0.385778, 0, 2,148,0.02000427,0.01000000,0.00000000,1.29490,1.43851,3.39820,16,2023.03.17,18.13.27.990531,M300_RTK,psdk T=43  err=0,1,1
00005,2,0001,13.79502050,100.80371008,-7.305672,0.385778, 0, 2,148,0.02000427,0.01000000,0.00000000,1.29490,1.43851,3.39820,16,2023.03.17,18.13.27.990930,M300_RTK,psdk T=43  err=0,1,1
00006,5,0002,13.79502048,100.80371038,-7.226277,0.237808, 0, 2,148,0.02000427,0.01000000,0.00000000,1.22825,1.42222,3.32497,16,2023.03.17,18.13.29.949447,M300_RTK,psdk T=43  err=0,2,2
00007,3,0002,13.79502048,100.80371038,-7.226290,0.237808, 0, 2,148,0.02000427,0.01000000,0.00000000,1.22825,1.42222,3.32497,16,2023.03.17,18.13.29.949966,M300_RTK,psdk T=43  err=0,2,2
00008,1,0002,13.79502048,100.80371038,-7.226294,0.237808, 0, 2,148,0.02000427,0.01000000,0.00000000,1.22825,1.42222,3.32497,16,2023.03.17,18.13.29.950154,M300_RTK,psdk T=43  err=0,2,2
00009,4,0002,13.79502048,100.80371038,-7.226303,0.237808, 0, 2,148,0.02000427,0.01000000,0.00000000,1.22825,1.42222,3.32497,16,2023.03.17,18.13.29.950517,M300_RTK,psdk T=43  err=0,2,2
00010,2,0002,13.79502048,100.80371038,-7.226313,0.237808, 0, 2,148,0.02000427,0.01000000,0.00000000,1.22825,1.42222,3.32497,16,2023.03.17,18.13.29.950924,M300_RTK,psdk T=43  err=0,2,2
00011,5,0003,13.79502052,100.80371053,-7.251245,0.478260, 0, 2,148,0.02000427,0.01000000,0.00000000,1.28789,1.43001,3.30768,16,2023.03.17,18.13.31.869431,M300_RTK,psdk T=43  err=0,3,3
00012,3,0003,13.79502052,100.80371053,-7.251217,0.478260, 0, 2,148,0.02000427,0.01000000,0.00000000,1.28789,1.43001,3.30768,16,2023.03.17,18.13.31.869948,M300_RTK,psdk T=43  err=0,3,3
00013,1,0003,13.79502052,100.80371053,-7.251207,0.478260, 0, 2,148,0.02000427,0.01000000,0.00000000,1.28789,1.43001,3.30768,16,2023.03.17,18.13.31.870137,M300_RTK,psdk T=43  err=0,3,3
00014,4,0003,13.79502052,100.80371053,-7.251188,0.478260, 0, 2,148,0.02000427,0.01000000,0.00000000,1.28789,1.43001,3.30768,16,2023.03.17,18.13.31.870502,M300_RTK,psdk T=43  err=0,3,3
00015,2,0003,13.79502052,100.80371053,-7.251165,0.478260, 0, 2,148,0.02000427,0.01000000,0.00000000,1.28789,1.43001,3.30768,16,2023.03.17,18.13.31.870919,M300_RTK,psdk T=43  err=0,3,3
00016,5,0004,13.79502048,100.80371089,-7.232122,0.301226, 0, 2,148,0.02000427,0.01000000,0.00000000,1.22998,1.35508,3.31447,16,2023.03.17,18.13.33.909414,M300_RTK,psdk T=43  err=0,4,4
00017,3,0004,13.79502048,100.80371089,-7.232087,0.301226, 0, 2,148,0.02000427,0.01000000,0.00000000,1.22998,1.35508,3.31447,16,2023.03.17,18.13.33.909925,M300_RTK,psdk T=43  err=0,4,4
00018,1,0004,13.79502048,100.80371089,-7.232075,0.301226, 0, 2,148,0.02000427,0.01000000,0.00000000,1.22998,1.35508,3.31447,16,2023.03.17,18.13.33.910117,M300_RTK,psdk T=43  err=0,4,4
00019,4,0004,13.79502048,100.80371089,-7.232050,0.301226, 0, 2,148,0.02000427,0.01000000,0.00000000,1.22998,1.35508,3.31447,16,2023.03.17,18.13.33.910488,M300_RTK,psdk T=43  err=0,4,4
00020,2,0004,13.79502048,100.80371089,-7.232021,0.301226, 0, 2,148,0.02000427,0.01000000,0.00000000,1.22998,1.35508,3.31447,16,2023.03.17,18.13.33.910916,M300_RTK,psdk T=43  err=0,4,4
00021,5,0005,13.79502050,100.80371114,-7.229489,0.470333, 0, 2,148,0.02000427,0.01000000,0.00000000,1.21925,1.39976,3.33646,16,2023.03.17,18.13.35.549397,M300_RTK,psdk T=43  err=0,5,5
00022,3,0005,13.79502050,100.80371114,-7.229492,0.470333, 0, 2,148,0.02000427,0.01000000,0.00000000,1.21925,1.39976,3.33646,16,2023.03.17,18.13.35.549906,M300_RTK,psdk T=43  err=0,5,5
00023,1,0005,13.79502050,100.80371114,-7.229492,0.470333, 0, 2,148,0.02000427,0.01000000,0.00000000,1.21925,1.39976,3.33646,16,2023.03.17,18.13.35.550099,M300_RTK,psdk T=43  err=0,5,5
00024,4,0005,13.79502050,100.80371114,-7.229494,0.470333, 0, 2,148,0.02000427,0.01000000,0.00000000,1.21925,1.39976,3.33646,16,2023.03.17,18.13.35.550474,M300_RTK,psdk T=43  err=0,5,5
00025,2,0005,13.79502050,100.80371114,-7.229496,0.470333, 0, 2,148,0.02000427,0.01000000,0.00000000,1.21925,1.39976,3.33646,16,2023.03.17,18.13.35.550907,M300_RTK,psdk T=43  err=0,5,5
00026,5,0006,13.79502065,100.80371122,-7.243248,0.536390, 0, 2,148,0.02000427,0.01000000,0.00000000,1.22745,1.41458,3.32583,16,2023.03.17,18.13.37.309379,M300_RTK,psdk T=43  err=0,6,6
00027,3,0006,13.79502065,100.80371122,-7.243242,0.536390, 0, 2,148,0.02000427,0.01000000,0.00000000,1.22745,1.41458,3.32583,16,2023.03.17,18.13.37.309880,M300_RTK,psdk T=43  err=0,6,6
00028,1,0006,13.79502065,100.80371122,-7.243240,0.536390, 0, 2,148,0.02000427,0.01000000,0.00000000,1.22745,1.41458,3.32583,16,2023.03.17,18.13.37.310078,M300_RTK,psdk T=43  err=0,6,6
00029,4,0006,13.79502065,100.80371122,-7.243235,0.536390, 0, 2,148,0.02000427,0.01000000,0.00000000,1.22745,1.41458,3.32583,16,2023.03.17,18.13.37.310457,M300_RTK,psdk T=43  err=0,6,6
00030,2,0006,13.79502065,100.80371122,-7.243229,0.536390, 0, 2,148,0.02000427,0.01000000,0.00000000,1.22745,1.41458,3.32583,16,2023.03.17,18.13.37.310900,M300_RTK,psdk T=43  err=0,6,6
00031,5,0007,13.79502087,100.80371124,-7.226925,0.483545, 0, 2,148,0.02000427,0.01000000,0.00000000,1.13025,1.37293,3.31064,16,2023.03.17,18.13.39.229367,M300_RTK,psdk T=44  err=0,7,7
00032,3,0007,13.79502087,100.80371124,-7.226913,0.483545, 0, 2,148,0.02000427,0.01000000,0.00000000,1.13025,1.37293,3.31064,16,2023.03.17,18.13.39.229865,M300_RTK,psdk T=44  err=0,7,7
00033,1,0007,13.79502087,100.80371124,-7.226909,0.483545, 0, 2,148,0.02000427,0.01000000,0.00000000,1.13025,1.37293,3.31064,16,2023.03.17,18.13.39.230066,M300_RTK,psdk T=44  err=0,7,7
00034,4,0007,13.79502087,100.80371124,-7.226900,0.483545, 0, 2,148,0.02000427,0.01000000,0.00000000,1.13025,1.37293,3.31064,16,2023.03.17,18.13.39.230449,M300_RTK,psdk T=44  err=0,7,7
00035,2,0007,13.79502087,100.80371124,-7.226890,0.483545, 0, 2,148,0.02000427,0.01000000,0.00000000,1.13025,1.37293,3.31064,16,2023.03.17,18.13.39.230899,M300_RTK,psdk T=44  err=0,7,7
00036,5,0008,13.79502104,100.80371110,-7.201079,0.113621, 0, 2,148,0.02000427,0.01000000,0.00000000,1.13039,1.39490,3.30676,16,2023.03.17,18.13.41.429349,M300_RTK,psdk T=44  err=0,8,8
00037,3,0008,13.79502104,100.80371110,-7.201079,0.113621, 0, 2,148,0.02000427,0.01000000,0.00000000,1.13039,1.39490,3.30676,16,2023.03.17,18.13.41.429841,M300_RTK,psdk T=44  err=0,8,8
00038,1,0008,13.79502104,100.80371110,-7.201079,0.113621, 0, 2,148,0.02000427,0.01000000,0.00000000,1.13039,1.39490,3.30676,16,2023.03.17,18.13.41.430043,M300_RTK,psdk T=44  err=0,8,8
00039,4,0008,13.79502104,100.80371110,-7.201079,0.113621, 0, 2,148,0.02000427,0.01000000,0.00000000,1.13039,1.39490,3.30676,16,2023.03.17,18.13.41.430433,M300_RTK,psdk T=44  err=0,8,8
00040,2,0008,13.79502104,100.80371110,-7.201078,0.113621, 0, 2,148,0.02000427,0.01000000,0.00000000,1.13039,1.39490,3.30676,16,2023.03.17,18.13.41.430893,M300_RTK,psdk T=44  err=0,8,8
00041,5,0009,13.79502152,100.80371072,-7.163930,0.454479, 0, 2,148,0.02000427,0.01000000,0.00000000,1.08193,1.36337,3.30206,16,2023.03.17,18.13.43.869332,M300_RTK,psdk T=44  err=0,9,9
00042,3,0009,13.79502152,100.80371072,-7.163919,0.454479, 0, 2,148,0.02000427,0.01000000,0.00000000,1.08193,1.36337,3.30206,16,2023.03.17,18.13.43.869819,M300_RTK,psdk T=44  err=0,9,9
00043,1,0009,13.79502152,100.80371072,-7.163914,0.454479, 0, 2,148,0.02000427,0.01000000,0.00000000,1.08193,1.36337,3.30206,16,2023.03.17,18.13.43.870022,M300_RTK,psdk T=44  err=0,9,9
00044,4,0009,13.79502152,100.80371072,-7.163905,0.454479, 0, 2,148,0.02000427,0.01000000,0.00000000,1.08193,1.36337,3.30206,16,2023.03.17,18.13.43.870419,M300_RTK,psdk T=44  err=0,9,9
00045,2,0009,13.79502152,100.80371072,-7.163894,0.454479, 0, 2,148,0.02000427,0.01000000,0.00000000,1.08193,1.36337,3.30206,16,2023.03.17,18.13.43.870892,M300_RTK,psdk T=44  err=0,9,9
00046,5,0010,13.79502232,100.80371082,-7.104964,0.417486, 0, 2,148,0.02000427,0.01000000,0.00000000,1.09490,1.37955,3.30015,16,2023.03.17,18.13.46.269311,M300_RTK,psdk T=44  err=0,10,10
00047,3,0010,13.79502232,100.80371082,-7.104953,0.417486, 0, 2,148,0.02000427,0.01000000,0.00000000,1.09490,1.37955,3.30015,16,2023.03.17,18.13.46.269790,M300_RTK,psdk T=44  err=0,10,10
00048,1,0010,13.79502232,100.80371082,-7.104949,0.417486, 0, 2,148,0.02000427,0.01000000,0.00000000,1.09490,1.37955,3.30015,16,2023.03.17,18.13.46.269996,M300_RTK,psdk T=44  err=0,10,10
00049,4,0010,13.79502232,100.80371082,-7.104940,0.417486, 0, 2,148,0.02000427,0.01000000,0.00000000,1.09490,1.37955,3.30015,16,2023.03.17,18.13.46.270399,M300_RTK,psdk T=44  err=0,10,10
00050,2,0010,13.79502232,100.80371082,-7.104928,0.417486, 0, 2,148,0.02000427,0.01000000,0.00000000,1.09490,1.37955,3.30015,16,2023.03.17,18.13.46.270884,M300_RTK,psdk T=44  err=0,10,10
00051,5,0011,13.79503866,100.80370710,-5.792882,0.684361, 0, 2,148,0.01000214,0.00000000,0.00000000,1.47210,1.80272,4.38983,16,2023.03.17,18.16.07.307938,M300_RTK,psdk T=50  err=0,11,11
00052,3,0011,13.79503866,100.80370710,-5.792857,0.684361, 0, 2,148,0.01000214,0.00000000,0.00000000,1.47210,1.80272,4.38983,16,2023.03.17,18.16.07.308222,M300_RTK,psdk T=50  err=0,11,11
00053,1,0011,13.79503866,100.80370710,-5.792824,0.684361, 0, 2,148,0.01000214,0.00000000,0.00000000,1.47210,1.80272,4.38983,16,2023.03.17,18.16.07.308606,M300_RTK,psdk T=50  err=0,11,11
00054,4,0011,13.79503866,100.80370710,-5.792754,0.684361, 0, 2,148,0.01000214,0.00000000,0.00000000,1.47210,1.80272,4.38983,16,2023.03.17,18.16.07.309406,M300_RTK,psdk T=50  err=0,11,11
00055,2,0011,13.79503866,100.80370710,-5.792652,0.684361, 0, 2,148,0.01000214,0.00000000,0.00000000,1.47210,1.80272,4.38983,16,2023.03.17,18.16.07.310581,M300_RTK,psdk T=50  err=0,11,11
00056,5,0012,13.79503941,100.80370642,-5.626288,0.549603, 0, 2,148,0.01000214,0.00000000,0.00000000,1.60619,1.88241,4.51579,16,2023.03.17,18.16.10.747904,M300_RTK,psdk T=50  err=0,12,12
00057,3,0012,13.79503941,100.80370642,-5.626269,0.549603, 0, 2,148,0.01000214,0.00000000,0.00000000,1.60619,1.88241,4.51579,16,2023.03.17,18.16.10.748184,M300_RTK,psdk T=50  err=0,12,12
00058,1,0012,13.79503941,100.80370642,-5.626241,0.549603, 0, 2,148,0.01000214,0.00000000,0.00000000,1.60619,1.88241,4.51579,16,2023.03.17,18.16.10.748576,M300_RTK,psdk T=50  err=0,12,12
00059,4,0012,13.79503941,100.80370642,-5.626185,0.549603, 0, 2,148,0.01000214,0.00000000,0.00000000,1.60619,1.88241,4.51579,16,2023.03.17,18.16.10.749385,M300_RTK,psdk T=50  err=0,12,12
00060,2,0012,13.79503941,100.80370642,-5.626101,0.549603, 0, 2,148,0.01000214,0.00000000,0.00000000,1.60619,1.88241,4.51579,16,2023.03.17,18.16.10.750576,M300_RTK,psdk T=50  err=0,12,12
00061,5,0013,13.79503562,100.80370357,-4.439780,0.531107, 0, 2,148,0.01000214,0.01000000,0.00000000,1.72292,1.48983,4.05796,16,2023.03.17,18.16.48.427470,M300_RTK,psdk T=50  err=0,13,13
00062,3,0013,13.79503562,100.80370357,-4.439762,0.531107, 0, 2,148,0.01000214,0.01000000,0.00000000,1.72292,1.48983,4.05796,16,2023.03.17,18.16.48.427734,M300_RTK,psdk T=50  err=0,13,13
00063,1,0013,13.79503562,100.80370357,-4.439733,0.531107, 0, 2,148,0.01000214,0.01000000,0.00000000,1.72292,1.48983,4.05796,16,2023.03.17,18.16.48.428178,M300_RTK,psdk T=50  err=0,13,13
00064,4,0013,13.79503562,100.80370357,-4.439672,0.531107, 0, 2,148,0.01000214,0.01000000,0.00000000,1.72292,1.48983,4.05796,16,2023.03.17,18.16.48.429098,M300_RTK,psdk T=50  err=0,13,13
00065,2,0013,13.79503562,100.80370357,-4.439581,0.531107, 0, 2,148,0.01000214,0.01000000,0.00000000,1.72292,1.48983,4.05796,16,2023.03.17,18.16.48.430482,M300_RTK,psdk T=50  err=0,13,13
