Name,Latitude,Longitude,AbsAlt,RltAlt,Pitch,Roll,Yaw,StdHorizon,StdHeight,Q,Date,Time
00001,13.79502029,100.80370978,0.000,0.167,-44.99,-0.03,58.02,1.93547850158559,3.3982,16,2023.03.17,18.13.27.989467
00002,13.79502051,100.80371016,0.000,0.198,-89.98,0.56,147.44,1.93547850158559,3.3982,16,2023.03.17,18.13.27.989986
00003,13.79502080,100.80370987,0.000,0.167,-44.98,0.01,147.99,1.93547850158559,3.3982,16,2023.03.17,18.13.27.990179
00004,13.79502020,100.80371029,0.000,0.231,-45.02,-0.01,-31.99,1.93547850158559,3.3982,16,2023.03.17,18.13.27.990531
00005,13.79502071,100.80371038,0.000,0.231,-45.01,0.03,-122.02,1.93547850158559,3.3982,16,2023.03.17,18.13.27.990930
00006,13.79502027,100.80371008,0.000,0.083,-44.99,-0.03,58.02,1.87917742400764,3.32497,16,2023.03.17,18.13.29.949447
00007,13.79502049,100.80371046,0.000,0.114,-89.98,0.56,147.44,1.87917742400764,3.32497,16,2023.03.17,18.13.29.949966
00008,13.79502078,100.80371017,0.000,0.083,-44.98,0.01,147.99,1.87917742400764,3.32497,16,2023.03.17,18.13.29.950154
00009,13.79502018,100.80371059,0.000,0.083,-45.02,-0.01,-31.99,1.87917742400764,3.32497,16,2023.03.17,18.13.29.950517
00010,13.79502069,100.80371068,0.000,0.083,-45.01,0.03,-122.02,1.87917742400764,3.32497,16,2023.03.17,18.13.29.950924
00011,13.79502031,100.80371023,0.000,0.323,-44.99,-0.03,58.02,1.92447116169612,3.30768,16,2023.03.17,18.13.31.869431
00012,13.79502053,100.80371061,0.000,0.354,-89.98,0.56,147.44,1.92447116169612,3.30768,16,2023.03.17,18.13.31.869948
00013,13.79502082,100.80371032,0.000,0.323,-44.98,0.01,147.99,1.92447116169612,3.30768,16,2023.03.17,18.13.31.870137
00014,13.79502022,100.80371074,0.000,0.323,-45.02,-0.01,-31.99,1.92447116169612,3.30768,16,2023.03.17,18.13.31.870502
00015,13.79502073,100.80371083,0.000,0.323,-45.01,0.03,-122.02,1.92447116169612,3.30768,16,2023.03.17,18.13.31.870919
00016,13.79502027,100.80371059,0.000,0.146,-44.99,-0.03,58.02,1.83005262405211,3.31447,16,2023.03.17,18.13.33.909414
00017,13.79502049,100.80371097,0.000,0.177,-89.98,0.56,147.44,1.83005262405211,3.31447,16,2023.03.17,18.13.33.909925
00018,13.79502078,100.80371068,0.000,0.146,-44.98,0.01,147.99,1.83005262405211,3.31447,16,2023.03.17,18.13.33.910117
00019,13.79502018,100.80371110,0.000,0.146,-45.02,-0.01,-31.99,1.83005262405211,3.31447,16,2023.03.17,18.13.33.910488
00020,13.79502069,100.80371119,0.000,0.146,-45.01,0.03,-122.02,1.83005262405211,3.31447,16,2023.03.17,18.13.33.910916
00021,13.79502029,100.80371084,0.000,0.315,-44.99,-0.03,58.02,1.85631317942313,3.33646,16,2023.03.17,18.13.35.549397
00022,13.79502051,100.80371122,0.000,0.346,-89.98,0.56,147.44,1.85631317942313,3.33646,16,2023.03.17,18.13.35.549906
00023,13.79502080,100.80371093,0.000,0.315,-44.98,0.01,147.99,1.85631317942313,3.33646,16,2023.03.17,18.13.35.550099
00024,13.79502020,100.80371135,0.000,0.315,-45.02,-0.01,-31.99,1.85631317942313,3.33646,16,2023.03.17,18.13.35.550474
00025,13.79502071,100.80371144,0.000,0.315,-45.01,0.03,-122.02,1.85631317942313,3.33646,16,2023.03.17,18.13.35.550907
00026,13.79502044,100.80371092,0.000,0.381,-44.99,-0.03,58.02,1.87287748635622,3.32583,16,2023.03.17,18.13.37.309379
00027,13.79502066,100.80371130,0.000,0.412,-89.98,0.56,147.44,1.87287748635622,3.32583,16,2023.03.17,18.13.37.309880
00028,13.79502095,100.80371101,0.000,0.381,-44.98,0.01,147.99,1.87287748635622,3.32583,16,2023.03.17,18.13.37.310078
00029,13.79502035,100.80371143,0.000,0.381,-45.02,-0.01,-31.99,1.87287748635622,3.32583,16,2023.03.17,18.13.37.310457
00030,13.79502086,100.80371152,0.000,0.381,-45.01,0.03,-122.02,1.87287748635622,3.32583,16,2023.03.17,18.13.37.310900
00031,13.79502066,100.80371094,0.000,0.328,-44.99,-0.03,58.02,1.77831432750231,3.31064,16,2023.03.17,18.13.39.229367
00032,13.79502088,100.80371132,0.000,0.360,-89.98,0.56,147.44,1.77831432750231,3.31064,16,2023.03.17,18.13.39.229865
00033,13.79502117,100.80371103,0.000,0.328,-44.98,0.01,147.99,1.77831432750231,3.31064,16,2023.03.17,18.13.39.230066
00034,13.79502057,100.80371145,0.000,0.329,-45.02,-0.01,-31.99,1.77831432750231,3.31064,16,2023.03.17,18.13.39.230449
00035,13.79502108,100.80371154,0.000,0.329,-45.01,0.03,-122.02,1.77831432750231,3.31064,16,2023.03.17,18.13.39.230899
00036,13.79502083,100.80371080,0.000,0.000,-44.99,-0.03,58.02,1.79541849219061,3.30676,16,2023.03.17,18.13.41.429349
00037,13.79502105,100.80371118,0.000,0.000,-89.98,0.56,147.44,1.79541849219061,3.30676,16,2023.03.17,18.13.41.429841
00038,13.79502134,100.80371089,0.000,0.000,-44.98,0.01,147.99,1.79541849219061,3.30676,16,2023.03.17,18.13.41.430043
00039,13.79502074,100.80371131,0.000,0.000,-45.02,-0.01,-31.99,1.79541849219061,3.30676,16,2023.03.17,18.13.41.430433
00040,13.79502125,100.80371140,0.000,0.000,-45.01,0.03,-122.02,1.79541849219061,3.30676,16,2023.03.17,18.13.41.430893
00041,13.79502131,100.80371042,0.000,0.299,-44.99,-0.03,58.02,1.74050288187064,3.30206,16,2023.03.17,18.13.43.869332
00042,13.79502153,100.80371080,0.000,0.330,-89.98,0.56,147.44,1.74050288187064,3.30206,16,2023.03.17,18.13.43.869819
00043,13.79502182,100.80371051,0.000,0.299,-44.98,0.01,147.99,1.74050288187064,3.30206,16,2023.03.17,18.13.43.870022
00044,13.79502122,100.80371093,0.000,0.299,-45.02,-0.01,-31.99,1.74050288187064,3.30206,16,2023.03.17,18.13.43.870419
00045,13.79502173,100.80371102,0.000,0.299,-45.01,0.03,-122.02,1.74050288187064,3.30206,16,2023.03.17,18.13.43.870892
00046,13.79502211,100.80371052,0.000,0.262,-44.99,-0.03,58.02,1.76123939670336,3.30015,16,2023.03.17,18.13.46.269311
00047,13.79502233,100.80371090,0.000,0.293,-89.98,0.56,147.44,1.76123939670336,3.30015,16,2023.03.17,18.13.46.269790
00048,13.79502262,100.80371061,0.000,0.262,-44.98,0.01,147.99,1.76123939670336,3.30015,16,2023.03.17,18.13.46.269996
00049,13.79502202,100.80371103,0.000,0.262,-45.02,-0.01,-31.99,1.76123939670336,3.30015,16,2023.03.17,18.13.46.270399
00050,13.79502253,100.80371112,0.000,0.262,-45.01,0.03,-122.02,1.76123939670336,3.30015,16,2023.03.17,18.13.46.270884
00051,13.79503845,100.80370680,0.000,0.529,-45.00,-0.01,58.01,2.32741870070686,4.38983,16,2023.03.17,18.16.07.307938
00052,13.79503867,100.80370718,0.000,0.560,-89.99,0.00,148.00,2.32741870070686,4.38983,16,2023.03.17,18.16.07.308222
00053,13.79503896,100.80370689,0.000,0.529,-44.99,0.00,148.00,2.32741870070686,4.38983,16,2023.03.17,18.16.07.308606
00054,13.79503836,100.80370731,0.000,0.529,-45.01,0.00,-32.00,2.32741870070686,4.38983,16,2023.03.17,18.16.07.309406
00055,13.79503887,100.80370740,0.000,0.529,-45.00,0.01,-122.01,2.32741870070686,4.38983,16,2023.03.17,18.16.07.310581
00056,13.79503920,100.80370612,0.000,0.395,-45.00,-0.01,58.01,2.47453303154353,4.51579,16,2023.03.17,18.16.10.747904
00057,13.79503942,100.80370650,0.000,0.426,-89.99,0.00,148.00,2.47453303154353,4.51579,16,2023.03.17,18.16.10.748184
00058,13.79503971,100.80370621,0.000,0.395,-44.99,0.00,148.00,2.47453303154353,4.51579,16,2023.03.17,18.16.10.748576
00059,13.79503911,100.80370663,0.000,0.395,-45.01,0.00,-32.00,2.47453303154353,4.51579,16,2023.03.17,18.16.10.749385
00060,13.79503962,100.80370672,0.000,0.395,-45.00,0.01,-122.01,2.47453303154353,4.51579,16,2023.03.17,18.16.10.750576
00061,13.79503541,100.80370327,0.000,0.376,-44.99,-0.01,58.01,2.27772842000534,4.05796,16,2023.03.17,18.16.48.427470
00062,13.79503563,100.80370365,0.000,0.407,-89.99,0.57,147.43,2.27772842000534,4.05796,16,2023.03.17,18.16.48.427734
00063,13.79503592,100.80370336,0.000,0.376,-44.99,0.01,147.99,2.27772842000534,4.05796,16,2023.03.17,18.16.48.428178
00064,13.79503532,100.80370378,0.000,0.376,-45.01,-0.01,-31.99,2.27772842000534,4.05796,16,2023.03.17,18.16.48.429098
00065,13.79503583,100.80370387,0.000,0.376,-45.01,0.01,-122.01,2.27772842000534,4.05796,16,2023.03.17,18.16.48.430482
